ORIGIN_AIRPORT_ID,DISPLAY_AIRPORT_NAME,LATITUDE,LONGITUDE
10001,Afognak Lake Airport,58.10944444,-152.9066667
10003,Bear Creek Mining Strip,65.54805556,-161.0716667
10004,Lik Mining Camp,68.08333333,-163.1666667
10005,Little Squaw Airport,67.57,-148.1838889
10006,Kizhuyak Bay,57.74527778,-152.8827778
10007,Klawock Seaplane Base,55.55472222,-133.1016667
10008,Elizabeth Island Airport,59.15694444,-151.8291667
10009,Augustin Island,59.36277778,-153.4305556
10010,Columbia County,42.28888889,-73.71027778
10010,Columbia County,42.29138889,-73.71027778
10011,Grand Canyon West,35.99027778,-113.8163889
10011,Grand Canyon West,35.98611111,-113.8169444
10011,Grand Canyon West,35.99027778,-113.8163889
10011,Grand Canyon West,35.98611111,-113.8169444
10012,Blairstown Airport,40.97111111,-74.9975
10013,Crosbyton Municipal,33.62388889,-101.2408333
10014,Blair Lake,64.36416667,-147.3613889
10014,Blair Lake,64.36361111,-147.3638889
10015,Deadmans Bay Airport,57.06666667,-153.9377778
10016,Hallo Bay Airport,58.4575,-154.0233333
10017,Red Lake Airport,57.27722222,-154.3422222
10018,Shell Lake Airport,61.96388889,-151.5558333
10019,Navigator Airstrip,65.65555556,-165.3563889
10020,Roland Norton Memorial Airstrip,66.76583333,-160.1525
10020,Roland Norton Memorial,66.76611111,-160.1527778
10021,Pillar Bay Airport,56.59805556,-134.2427778
10022,Johnstone Point Airport,60.48138889,-146.5822222
10022,Johnstone Point Airport,60.48222222,-146.5822222
10022,Johnstone Point Airport,60.48166667,-146.5841667
10022,Johnstone Point Airport,60.48222222,-146.5822222
10022,Johnstone Point Airport,60.48166667,-146.5841667
10023,Tikchik Lodge Airport,59.95555556,-158.4805556
10023,Tikchik Lodge Airport,59.95555556,-158.4805556
10024,Bell Creek Airport,60.78388889,-159.5402778
10025,Cinnabar Airport,60.78527778,-158.8644444
10026,Mountaintop Mine Airport,61.39027778,-157.9955556
10027,Whitebear Airport,61.18888889,-159.8583333
10028,Puviaq Airport,70.71861111,-154.3883333
10028,Puviaq Airport,70.71555556,-154.4069444
10029,Arley Lake Airport,70.74694444,-155.3608333
10030,Port Vita Airport,58.06555556,-153.0725
10031,Kantishna Airport,63.54166667,-150.9938889
10031,Kantishna Airport,63.54111111,-150.995
10031,Kantishna Airport,63.54166667,-150.9938889
10031,Kantishna Airport,63.54111111,-150.995
10033,Alpine Airstrip,70.34416667,-150.9447222
10034,Serpentine Airport,65.85138889,-164.7027778
10035,Driftwood Bay Airport,53.97277778,-166.8569444
10036,Bradley Lake Airport,59.77611111,-151.9636111
10037,Chilkat Lake Airport,59.33166667,-135.8966667
10038,Nugget Creek Airport,59.28833333,-136.1738889
10039,Ivotuk Airstrip,68.48333333,-155.7333333
10040,Pogo Mines Airport,64.44,-144.9363889
10041,Ayakulik River Airport,57.25388889,-154.4222222
10042,Kiluda Bay Airport,57.32305556,-153.1494444
10043,Terror Lake Airport,57.96388889,-153.0583333
10044,Selief Bay Airport,58.98277778,-153.1833333
10047,Laura Lake Airport,58.36194444,-152.3122222
10049,Deep Bay Airport,55.56027778,-131.6555556
10050,Kako Airport,61.89888889,-161.4380556
10050,Kako Airport,61.89888889,-161.4397222
10051,Molly Creek Airport,64.09722222,-143.2666667
10052,Ptarmigan Lake Airport,61.86611111,-141.1597222
10053,Cape Simpson Airport,71.05694444,-154.7283333
10054,Kogru River Airport,70.57611111,-152.2711111
10054,Kogru River Airport,70.57472222,-152.2588889
10055,Teshepkuk Lake Airport,70.35833333,-153.1966667
10056,Trident Basin Seaplane Base,57.78083333,-152.3911111
10058,Lake Florence Airport,57.81666667,-134.5833333
10059,Lake Hasselborg Airport,57.7,-134.2666667
10060,Distin Lake Airport,57.61666667,-134.3666667
10061,Port Hobron Airport,57.15,-153.15
10062,Mooseville Airstrip Airport,70.28444444,-152.2119444
10063,Big Bay Airport,58.5625,-152.5961111
10064,Wien Lake Airport,64.35277778,-151.275
10065,Silver Salmon Creek Airport,59.96388889,-152.6822222
10066,Blear Lake Airport,64.33333333,-147.5
10067,Cannery Bay Airport,53.68333333,-166.75
10069,Johnsons Landing,56.03666667,-160.2661111
10070,International Seafoods Airport,58.26666667,-157.5333333
10070,International Seafoods Airport,58.26666667,-157.5333333
10071,Cosna River Airport,64.5,-151.6666667
10072,Ivatuk Airport,68.48777778,-155.7575
10074,Cape Sarichef AFS,54.58333333,-164.9125
10074,Cape Sarichef Airport,54.5825,-164.9144444
10075,Taylor Mountain,60.86777778,-157.3919444
10076,Coal Creek,65.31111111,-143.1352778
10076,Coal Creek,65.31138889,-143.1355556
10076,Coal Creek,65.31166667,-143.1341667
10076,Coal Creek,65.31138889,-143.1355556
10076,Coal Creek,65.31166667,-143.1341667
10078,Karluk Portage Airport,57.53833333,-154.1644444
10079,Hope Airport,60.90555556,-149.6238889
10079,Hope Airport,60.90416667,-149.6238889
10079,Hope Airport,60.90722222,-149.6227778
10079,Hope Airport,60.90416667,-149.6238889
10079,Hope Airport,60.90722222,-149.6227778
10080,Viekoda Bay Airport,57.84944444,-153.1152778
10082,Cathedral Strip,55.74,-162.1252778
10083,Village Islands Airport,57.77416667,-153.5447222
10084,Bear Cove Farm,59.73833333,-151.03
10085,Chinitna Bay Airport,59.83333333,-152.5847222
10086,McKinley National Park,63.7325,-148.9105556
10087,Dog Fish Bay,59.24111111,-151.8772222
10088,Malina Bay Airport,58.17194444,-152.8941667
10089,Red Fox Bay Airport,58.46444444,-152.5930556
10090,Shearwater Airport,57.34333333,-152.8972222
10091,Lake,71.03,-154.4436111
10092,Cape Simpson No. 1,71.50166667,-154.0338889
10093,Cape Simpson No. 7,70.57388889,-155.3213889
10094,Cape Simpson #1,70.66277778,-154.8366667
10095,Nikiski Private Airstrip,60.69027778,-151.2888889
10096,Petrof Point Airport,59.37638889,-150.765
10097,Denali West Lodge Private,63.75555556,-147.93
10098,Big River Airport,61.85944444,-154.2766667
10100,Carry Inlet Airport,58.58305556,-152.4458333
10102,Montague Island Airport,59.925,-147.5166667
10103,Shannon Pond Airport,59.03916667,-158.4638889
10104,Omalik Lagoon Airport,69.15555556,-163.4972222
10105,Omolik Lagoon Airport,69.14805556,-163.5102778
10106,Bradley Lake Project Airport,59.79166667,-151.2666667
10107,Ice Strip,70.57416667,-155.3180556
10108,Ice Strip,70.31194444,-153.2491667
10109,Ice Strip,70.98083333,-157.095
10110,Akulik Air Strip,68.98555556,-163.4797222
10111,Deadfall Air Strip,69.17083333,-163.2563889
10112,Eagle Creek Airport,68.67666667,-162.6469444
10113,Ice Kong,59.95277778,-162.6169444
10116,Glacier Split,59.63333333,-151.2083333
10117,Selby Lake Airport,66.95583333,-155.615
10118,Anaa Airport,-17.35388889,-145.5097222
10118,Anaa Airport,-17.3525,-145.51
10119,Arrabury Station,-26.7,141.0416667
10120,El Arish International,31.07638889,33.83333333
10120,El Arish International,31.07333333,33.83583333
10121,Rabah Bitat,36.82166667,7.81
10121,Rabah Bitat,36.82222222,7.80944444
10121,Rabah Bitat,36.82944444,7.81388889
10122,Apalachicola Regional,29.7275,-85.0275
10122,Apalachicola Regional Cleve Randolph Field,29.7275,-85.0275
10122,Apalachicola Regional,29.7275,-85.0275
10122,Apalachicola Regional Cleve Randolph Field,29.7275,-85.0275
10123,Aachen/Merzbruck,50.82305556,6.18611111
10123,Aachen/Merzbruck,50.82305556,6.18611111
10123,Aachen/Merzbruck,50.82305556,6.1875
10123,Aachen Merzbrueck,50.82305556,6.1875
10123,Aachen Merzbruck,50.82305556,6.1875
10123,Aachen Merzbrueck,50.82305556,6.1875
10124,Arraias Airport,-12.91666667,-46.93333333
10124,Arraias Airport,-13.025,-46.88416667
10124,Arraias Airport,-13.02583333,-46.88361111
10124,Arraias Airport,-13.025,-46.88416667
10124,Arraias Airport,-13.02583333,-46.88361111
10125,Aalborg Airport,57.09305556,9.85
10125,Aalborg Airport,57.09277778,9.84916667
10125,Aalborg Airport,57.09416667,9.85583333
10126,Malamala,-24.80833333,31.54166667
10126,Malamala,-24.81694444,31.54416667
10127,Al Ain International,24.26166667,55.60916667
10127,Al Ain International,24.26194444,55.6075
10127,Al Ain International,24.26166667,55.60916667
10128,Anaco Airport,9.43194444,-64.46388889
10128,Anaco Airport,9.43027778,-64.47083333
10128,Anaco Airport,9.43,-64.47083333
10128,Anaco Airport,9.43027778,-64.47083333
10128,Anaco Airport,9.43,-64.47083333
10129,Vityazevo,44.9,37.31666667
10129,Vityazevo,45.00222222,37.34722222
10129,Anapa Airport,45.00222222,37.34722222
10129,Vityazevo,45.00222222,37.34722222
10130,Tirstrup,56.31027778,10.61805556
10130,Tirstrup,56.30388889,10.62
10130,Aarhus Airport,56.3,10.61888889
10131,Asau W Sam,-13.51666667,-172.65
10132,Araxa Airport,-19.56805556,-46.92916667
10132,Araxa Airport,-19.56333333,-46.96027778
10132,Romeu Zema,-19.56333333,-46.96027778
10134,Abadan Airport,30.36611111,48.23222222
10134,Abadan Airport,30.36611111,48.23222222
10134,Abadan Airport,30.36527778,48.23305556
10135,Lehigh Valley International,40.65472222,-75.43833333
10135,Lehigh Valley International,40.65222222,-75.44027778
10135,Lehigh Valley International,40.65222222,-75.44055556
10135,Lehigh Valley International,40.65222222,-75.44027778
10135,Lehigh Valley International,40.65222222,-75.44055556
10135,Lehigh Valley International,40.6525,-75.44027778
10136,Abilene Regional,32.40944444,-99.67972222
10136,Abilene Regional,32.41111111,-99.68166667
10136,Abilene Regional,32.41138889,-99.68194444
10137,Abidjan Felix Houphouet Boigny International,5.25555556,-3.92916667
10137,Abidjan Felix Houphouet Boigny International,5.26138889,-3.92583333
10137,Felix Houphouet Boigny Abidjan,5.26138889,-3.92583333
10137,Felix Houphouet Boigny Abidjan International,5.26138889,-3.92583333
10137,Abidjan Felix Houphouet Boigny International,5.26138889,-3.92583333
10137,Felix Houphouet Boigny Abidjan International,5.26138889,-3.92583333
10138,Kabri Dar Airport,6.73388889,44.26611111
10138,Kebri Dahar,6.73277778,44.24166667
10138,Kebri Dahar,6.73277778,44.24138889
10138,Kebri Dahar,6.73277778,44.24166667
10138,Kebri Dahar,6.73277778,44.24138889
10139,Ambler River,67.0875,-157.8458333
10140,Albuquerque International Sunport,35.04166667,-106.6063889
10140,Albuquerque International Sunport,35.04027778,-106.6091667
10140,Albuquerque International Sunport,35.03888889,-106.6083333
10140,Albuquerque International Sunport,35.04027778,-106.6091667
10140,Albuquerque International Sunport,35.03888889,-106.6083333
10141,Aberdeen Regional,45.44972222,-98.42166667
10141,Aberdeen Regional,45.44916667,-98.42194444
10141,Aberdeen Regional,45.44833333,-98.4225
10141,Aberdeen Regional,45.44666667,-98.4225
10141,Aberdeen Regional,45.44916667,-98.42194444
10141,Aberdeen Regional,45.44666667,-98.4225
10142,Abu Simbel Airport,22.37222222,31.61527778
10142,Abu Simbel Airport,22.37472222,31.60944444
10142,Abu Simbel Airport,22.37583333,31.61166667
10142,Abu Simbel Airport,22.37472222,31.60944444
10142,Abu Simbel Airport,22.37583333,31.61166667
10143,Al-Baha Airport,20.29611111,41.63416667
10143,Al-Baha Airport,20.29611111,41.63416667
10143,King Saud Bin Abdulaziz,20.29611111,41.63416667
10143,Al Baha,20.29611111,41.63416667
10143,King Saud Bin Abdulaziz,20.29611111,41.63416667
10143,King Saud Bin Abdulaziz,20.29833333,41.63583333
10144,Abuja Nnamdi Azikiwe International,9.00555556,7.26611111
10144,Abuja Nnamdi Azikiwe International,9.00666667,7.26305556
10144,Nnamdi Azikiwe International,9.00666667,7.26305556
10144,Abuja Nnamdi Azikiwe International,9.00666667,7.26305556
10144,Nnamdi Azikiwe International,9.00666667,7.26305556
10145,Albury Airport,-36.06833333,146.9766667
10145,Albury Airport,-36.06777778,146.9580556
10146,Southwest Georgia Regional,31.53222222,-84.19611111
10146,Southwest Georgia Regional,31.53555556,-84.19444444
10147,Aberdeen Dyce,57.20416667,-2.19861111
10147,Aberdeen Dyce,57.20194444,-2.19777778
10147,Aberdeen Dyce,57.2025,-2.19805556
10147,Aberdeen Dyce,57.20361111,-2.19916667
10147,Aberdeen Dyce,57.20194444,-2.19777778
10147,Aberdeen Dyce,57.20361111,-2.19916667
10148,General Juan N Alvarez International,16.75555556,-99.76694444
10148,General Juan N Alvarez International,16.75694444,-99.75388889
10149,Antrim County,44.98472222,-85.19916667
10149,Antrim County,44.98861111,-85.19833333
10150,Accra Kotoka International,5.59527778,-0.17083333
10150,Accra Kotoka International,5.60444444,-0.1675
10151,Lanzarote,28.9425,-13.60472222
10151,Lanzarote,28.94555556,-13.60527778
10152,St Gallen Altenrhein,47.48527778,9.56
10152,St Gallen Altenrhein,47.485,9.56
10153,Alderney Airport,49.70694444,-2.21527778
10153,Alderney Airport,49.70611111,-2.21472222
10153,Alderney Airport,49.70666667,-2.21444444
10153,Alderney Airport,49.70666667,-2.21472222
10153,Alderney Airport,49.70611111,-2.21472222
10153,Alderney Airport,49.70666667,-2.21472222
10153,Alderney Airport,49.70694444,-2.21472222
10154,Nantucket Memorial,41.25666667,-70.05972222
10154,Nantucket Memorial,41.25305556,-70.06027778
10154,Nantucket Memorial,41.25305556,-70.06
10154,Nantucket Memorial,41.25305556,-70.06027778
10154,Nantucket Memorial,41.25305556,-70.06
10155,Waco Regional,31.61138889,-97.22861111
10155,Waco Regional,31.61222222,-97.23027778
10156,Achutupo Airport,8.43333333,-77.96666667
10157,Arcata,40.97916667,-124.1075
10157,Arcata,40.97805556,-124.1086111
10157,Arcata,40.97777778,-124.1083333
10157,California Redwood Coast Humboldt County,40.97777778,-124.1083333
10157,Arcata,40.97805556,-124.1086111
10157,California Redwood Coast Humboldt County,40.97777778,-124.1083333
10158,Nafec Atlantic City,39.45611111,-74.57805556
10158,Nafec Atl,39.45666667,-74.57777778
10158,Atlantic City International,39.4575,-74.57805556
10158,Atlantic City International,39.4575,-74.57722222
10159,Adana Sakirpasa,36.98361111,35.28083333
10159,Adana International,36.98222222,35.28027778
10160,Adnan Menderes,38.29472222,27.16
10160,Adnan Menderes,38.29222222,27.15583333
10161,Andakombe Airport,-7.13611111,145.7441667
10161,Andakombe Airport,-7.13638889,145.7438889
10161,Andakombe Airport,-7.13722222,145.745
10162,Haile Selassie I International,8.97805556,38.79944444
10162,Bole International,8.97805556,38.79944444
10163,Aden International,12.82777778,45.03055556
10163,Aden International,12.83444444,45.02888889
10163,Aden International,12.82944444,45.02888889
10164,King Abdullah Ben,31.97222222,35.99
10164,Marka International,31.97222222,35.99
10164,Marka International,31.97277778,35.99166667
10165,Adak NS,51.88277778,-176.6447222
10165,Adak,51.87805556,-176.6461111
10165,Adak,51.87805556,-176.6458333
10165,Adak,51.88361111,-176.6425
10165,Adak,51.87805556,-176.6461111
10165,Adak,51.88361111,-176.6425
10166,Adelaide International,-34.94833333,138.5347222
10166,Adelaide International,-34.945,138.5305556
10167,Ardmore Municipal,34.30305556,-97.01972222
10167,Ardmore Municipal,34.30416667,-97.02055556
10167,Ardmore Municipal,34.30388889,-97.02055556
10167,Ardmore Municipal,34.30416667,-97.02055556
10167,Ardmore Municipal,34.30388889,-97.02055556
10168,Andes Airport,5.66666667,-75.88333333
10168,Andes Airport,5.69805556,-75.87972222
10168,Andes Airport,5.69777778,-75.88027778
10168,Andes Airport,5.69805556,-75.87972222
10168,Andes Airport,5.69777778,-75.88027778
10169,Andamooka Airport,-30.43777778,137.1372222
10170,Kodiak Airport,57.75,-152.4938889
10170,Kodiak Airport,57.74972222,-152.4938889
10170,Kodiak Airport,57.75,-152.4938889
10170,Kodiak Airport,57.74972222,-152.4938889
10171,Addison,32.96833333,-96.83611111
10171,Addison,32.96861111,-96.83638889
10172,Andrews AFB,38.81083333,-76.86722222
10172,Andrews AFB,38.81083333,-76.86694444
10172,Joint Base Andrews,38.81083333,-76.86694444
10172,Andrews AFB,38.81083333,-76.86694444
10172,Joint Base Andrews,38.81083333,-76.86694444
10173,RAF Leuchars,56.37277778,-2.86833333
10173,RAF Leuchars,56.37277778,-2.86861111
10173,RAF Leuchars,56.37416667,-2.86861111
10173,RAF Leuchars,56.37277778,-2.86833333
10173,RAF Leuchars,56.37416667,-2.86861111
10174,San Andres,12.58333333,-81.7
10174,Sesquicentenario,12.58305556,-81.71166667
10174,Gustavo Rojas Pinilla,12.58361111,-81.71138889
10175,Al Dhafra Air Base,24.24833333,54.54777778
10176,Aleneva Airport,58.03333333,-152.9
10177,Aek Godang,1.4,99.43055556
10178,Abeche Airport,13.85138889,20.85083333
10178,Abeche Airport,13.84694444,20.84361111
10178,Abeche Airport,13.8475,20.84333333
10180,Aioun El Atrouss Airport,16.70916667,-9.63555556
10180,Aioun El Atrouss Airport,16.71138889,-9.63777778
10181,Aeroparque Jorge Newbery,-34.55888889,-58.41583333
10181,Aeroparque Jorge Newbery,-34.55916667,-58.41583333
10182,Adler/Sochi Airport,43.45,39.93333333
10182,Adler/Sochi Airport,43.45,39.93333333
10183,Vigra,62.5625,6.10527778
10183,Vigra,62.56111111,6.11416667
10183,Vigra,62.56027778,6.11027778
10184,Allakaket Airport,66.56166667,-152.6583333
10184,Allakaket Airport,66.55194444,-152.6222222
10185,England AFB,31.32416667,-92.54694444
10185,Alexandria International,31.3275,-92.54861111
10186,Akureyri Airport,65.65694444,-18.07222222
10186,Akureyri Airport,65.66,-18.07277778
10186,Akureyri Airport,65.65666667,-18.07194444
10186,Akureyri Airport,65.66,-18.07277778
10186,Akureyri Airport,65.65666667,-18.07194444
10188,San Rafael Airport,-34.58916667,-68.40055556
10188,San Rafael Airport,-34.58777778,-68.40333333
10188,San Rafael Airport,-34.58861111,-68.40277778
10188,San Rafael Airport,-34.58777778,-68.40361111
10188,San Rafael Airport,-34.58777778,-68.40333333
10188,San Rafael Airport,-34.58777778,-68.40361111
10189,USAF Academy Airfield,38.96972222,-104.8125
10189,USAF Academy Airfield,38.96972222,-104.8127778
10189,USAF Academy Airfield,38.97416667,-104.8177778
10189,USAF Academy Airfield,38.96972222,-104.8127778
10189,USAF Academy Airfield,38.97416667,-104.8177778
10190,Nebraska City Municipal,40.60694444,-95.86583333
10190,Nebraska City Municipal,40.60555556,-95.86777778
10190,Nebraska City Municipal,40.60638889,-95.86666667
10190,Nebraska City Municipal,40.60666667,-95.86666667
10190,Nebraska City Municipal,40.60555556,-95.86777778
10190,Nebraska City Municipal,40.60666667,-95.86666667
10191,Afton Municipal,42.71666667,-110.9333333
10191,Afton Municipal,42.70888889,-110.9422222
10192,Anson County,35.02388889,-80.08138889
10192,Anson County,35.02055556,-80.07722222
10192,Anson County Jeff Cloud Field,35.02055556,-80.07722222
10192,Anson County,35.02055556,-80.07722222
10192,Anson County Jeff Cloud Field,35.02055556,-80.07722222
10194,Fort Worth Alliance,32.98666667,-97.3175
10194,Fort Worth Alliance,32.98777778,-97.31888889
10194,Fort Worth Alliance,32.9875,-97.31888889
10194,Fort Worth Alliance,32.98944444,-97.31944444
10194,Fort Worth Alliance,32.98777778,-97.31888889
10194,Fort Worth Alliance,32.98944444,-97.31944444
10194,Fort Worth Alliance,32.99027778,-97.31944444
10195,Afyon Airport,38.735,30.59555556
10195,Afyon Airport,38.72638889,30.60111111
10196,Agadir/Inezgane,30.38055556,-9.54583333
10196,Inezgane,30.38138889,-9.54611111
10197,Muehlhausen,48.42611111,10.93305556
10197,Augsburg Airport,48.42444444,10.93222222
10197,Augsburg Airport,48.42527778,10.93194444
10198,Allegheny County,40.35472222,-79.93
10198,Allegheny County,40.35472222,-79.93
10198,Allegheny County,40.35444444,-79.93027778
10198,Allegheny County,40.35444444,-79.92916667
10198,Allegheny County,40.35444444,-79.93027778
10198,Allegheny County,40.35444444,-79.92916667
10199,La Garenne,44.17361111,0.59861111
10199,La Garenne,44.17388889,0.59305556
10199,Agen La Garenne,44.17388889,0.59305556
10199,Agen La Garenne,44.17472222,0.59055556
10199,La Garenne,44.17388889,0.59305556
10199,Agen La Garenne,44.17472222,0.59055556
10199,Agen La Garenne,44.17388889,0.59305556
10200,Angoram Airport,-4.06583333,144.0738889
10201,Angelholm-Helsingborg,56.29305556,12.8625
10201,Angelholm-Helsingborg,56.29583333,12.84972222
10201,Angelholm,56.29166667,12.855
10201,Angelholm,56.29111111,12.855
10201,Angelholm,56.29166667,12.855
10201,Angelholm,56.29111111,12.855
10202,Kagua Airport,-6.40333333,143.8466667
10203,Wanigela Airport,-9.34027778,149.1552778
10203,Wanigela Airport,-9.3375,149.1555556
10204,Angoon Seaplane Base,57.50388889,-134.5833333
10205,Malaga Airport,36.67166667,-4.49805556
10205,Malaga Airport,36.675,-4.49916667
10205,Malaga Airport,36.67972222,-4.49583333
10205,Malaga Airport,36.68,-4.49583333
10205,Malaga Costa del Sol,36.68,-4.49583333
10205,Malaga Airport,36.675,-4.49916667
10205,Malaga Costa del Sol,36.68,-4.49583333
10205,Malaga Airport,36.67972222,-4.49583333
10206,Agrinion New,38.60416667,21.35194444
10206,Agrinion Airport,38.60194444,21.35111111
10207,Agra Airport,27.15833333,77.96277778
10207,Agra Airport,27.15777778,77.96083333
10208,Bush Field,33.36916667,-81.96444444
10208,Augusta Regional at Bush Field,33.36916667,-81.96444444
10208,Augusta Regional at Bush Field,33.37,-81.96444444
10209,Guarani International,-25.45555556,-54.84361111
10210,Jesus Teran International,21.70555556,-102.3177778
10210,Jesus Teran International,21.70083333,-102.3180556
10210,Jesus Teran International,21.70555556,-102.3177778
10211,Oswaldo Guevara Mujica,9.55222222,-69.23333333
10211,Oswaldo Guevara Mujica,9.55333333,-69.2375
10212,Agatti Island Airport,10.83333333,72.2
10213,Naha AB,26.19194444,127.6477778
10214,Abha Airport,18.23861111,42.655
10214,Abha Airport,18.24027778,42.65666667
10214,Abha Airport,18.24027778,42.65638889
10214,Abha Airport,18.24027778,42.65666667
10214,Abha Airport,18.24027778,42.65638889
10215,Ardmore Airport,34.14694444,-97.12277778
10215,Ardmore Downtown Executive,34.14694444,-97.12277778
10216,Athens Municipal,33.94833333,-83.32694444
10216,Athens/Ben Epps,33.94861111,-83.32638889
10216,Athens/Ben Epps,33.94861111,-83.32583333
10216,Athens/Ben Epps,33.94861111,-83.32638889
10216,Athens/Ben Epps,33.94861111,-83.32583333
10217,Alghero,40.63055556,8.28888889
10217,Alghero,40.63222222,8.29083333
10217,Alghero Fertilia,40.63222222,8.29083333
10217,Alghero,40.63222222,8.29083333
10217,Alghero Fertilia,40.63222222,8.29083333
10217,Alghero,40.63222222,8.29083333
10218,Ahuas Airport,15.47277778,-84.35138889
10218,Ahuas Airport,15.47277778,-84.35305556
10218,Auas,15.47277778,-84.35305556
10218,Ahuas Airport,15.47277778,-84.35305556
10218,Auas,15.47277778,-84.35305556
10219,Amchitka,51.37861111,179.2586111
10220,Cherif El Idrissi International,35.17972222,-3.83694444
10220,Cherif El Idrissi International,35.17722222,-3.83944444
10221,Alliance Municipal,42.05166667,-102.8066667
10221,Alliance Municipal,42.05333333,-102.8038889
10221,Alliance Municipal,42.05333333,-102.8036111
10221,Alliance Municipal,42.05333333,-102.8038889
10221,Alliance Municipal,42.05333333,-102.8036111
10222,Anita Bay Airport,56.19,-132.4458333
10223,Anderson Municipal-Darlington Field,40.10861111,-85.61305556
10223,Anderson Municipal-Darlington Field,40.10861111,-85.61305556
10224,Aiken Municipal,33.65,-81.68472222
10224,Aiken Municipal,33.64944444,-81.685
10224,Aiken Regional,33.64944444,-81.685
10225,Wainwright Airport,70.63055556,-160.0430556
10225,Wainwright Airport,70.63805556,-159.9947222
10226,Aitutaki Airport,-18.85,-159.75
10226,Aitutaki Airport,-18.83722222,-159.7611111
10226,Aitutaki Airport,-18.8375,-159.7611111
10226,Aitutaki Airport,-18.83694444,-159.7608333
10226,Aitutaki Airport,-18.83722222,-159.7611111
10226,Aitutaki Airport,-18.83694444,-159.7608333
10226,Aitutaki Airport,-18.83694444,-159.7611111
10227,Bader Field,39.36,-74.46
10227,Bader Field,39.36,-74.45722222
10228,Lee C Fine Memorial,38.09833333,-92.54722222
10228,Lee C Fine Memorial,38.09611111,-92.54944444
10229,Ajaccio/Campo Dell Oro,41.92416667,8.80305556
10229,Napoleon Bonaparte,41.92166667,8.80111111
10229,Ajaccio Napoleon Bonaparte,41.92166667,8.80111111
10229,Ajaccio Napoleon Bonaparte,41.92388889,8.8025
10229,Napoleon Bonaparte,41.92166667,8.80111111
10229,Ajaccio Napoleon Bonaparte,41.92388889,8.8025
10230,Al Jouf,29.8,40.06666667
10230,Al Jouf,29.785,40.1
10231,Akjoujt Airport,19.73055556,-14.37444444
10231,Akjoujt Airport,19.72805556,-14.38527778
10232,Lengpui,23.84055556,92.61972222
10233,Ouani,-12.12638889,44.42972222
10233,Ouani,-12.13222222,44.43027778
10233,Ouani,-12.13111111,44.43055556
10233,Ouani,-12.13222222,44.43027778
10233,Ouani,-12.13111111,44.43055556
10234,Arvidsjaur Airport,65.58611111,19.2825
10234,Arvidsjaur Airport,65.59027778,19.28194444
10234,Arvidsjaur Airport,65.59166667,19.2775
10235,Santa Maria,-10.98388889,-37.07027778
10235,Santa Maria International,-10.98388889,-37.07027778
10236,Manu Dayak,16.96416667,7.99305556
10236,Manu Dayak,16.96611111,8.00027778
10236,Manu Dayak,16.96611111,8
10236,Mano Dayak,16.96611111,8
10236,Manu Dayak,16.96611111,8.00027778
10236,Mano Dayak,16.96611111,8
10236,Mano Dayak,16.96083333,8.00916667
10237,Atka Airport,52.22027778,-174.2069444
10237,Atka Airport,52.22055556,-174.2061111
10238,Akron Fulton International,41.0375,-81.46694444
10239,Kufra,24.2,23.33333333
10239,Kufra,24.17888889,23.31388889
10239,Kufra,24.17888889,23.31388889
10241,Akiak Airport,60.90555556,-161.2233333
10241,Akiak Airport,60.90277778,-161.2305556
10242,Asahikawa Airport,43.67083333,142.4516667
10242,Asahikawa Airport,43.67083333,142.4513889
10242,Asahikawa Airport,43.67083333,142.4475
10243,Akhiok Airport,56.945,-154.1666667
10243,Akhiok Airport,56.93861111,-154.1825
10244,Auckland International,-37.01111111,174.7991667
10244,Auckland International,-37.00805556,174.7916667
10244,Auckland International,-37.01194444,174.7863889
10245,King Salmon Airport,58.67777778,-156.6516667
10245,King Salmon Airport,58.67638889,-156.6486111
10246,Akron Washington County,40.17555556,-103.2222222
10246,Colorado Plains Regional,40.17555556,-103.2219444
10247,Anaktuvuk Pass Airport,68.1375,-151.74
10247,Anaktuvuk Pass Airport,68.13361111,-151.7433333
10248,Akure Airport,7.25833333,5.30416667
10248,Akure Airport,7.24666667,5.30111111
10249,Auki Airport,-8.69777778,160.6808333
10249,Auki Airport,-8.7025,160.6816667
10249,Auki Gwaunaru University,-8.7025,160.6816667
10249,Auki Airport,-8.7025,160.6816667
10250,Akrotiri Airport,34.59027778,32.9875
10250,Akrotiri Airport,34.59027778,32.98777778
10251,Aktyubinsk Airport,50.25,57.21666667
10251,Aktyubinsk Airport,50.25,57.21666667
10252,Akyab Airport,20.13027778,92.88027778
10252,Sittwe Airport,20.13027778,92.88027778
10252,Sittwe Airport,20.13277778,92.8725
10252,Sittwe Airport,20.13333333,92.87055556
10253,Albertville Regional-Thomas J Brumlik Field,34.22916667,-86.25583333
10254,Shelby County,33.17694444,-86.78277778
10254,Shelby County,33.17777778,-86.78333333
10255,Madison County Executive/Tom Sharp Jr. Field,34.86138889,-86.5575
10255,Madison County Executive/Tom Sharp Jr. Field,34.85944444,-86.5575
10255,Huntsville Executive Airport Tom Sharp Jr,34.85944444,-86.5575
10255,Madison County Executive Tom Sharp Jr Field,34.86138889,-86.5575
10255,Huntsville Executive Airport Tom Sharp Jr,34.85944444,-86.5575
10255,Huntsville Executive Tom Sharp Jr,34.85944444,-86.5575
10256,Alma-Ata Airport,43.35,77.03333333
10256,Almaty Airport,43.35,77.03333333
10256,Almaty Airport,43.35555556,77.04388889
10257,Albany International,42.74583333,-73.80527778
10257,Albany International,42.74916667,-73.80194444
10258,Alicante Airport,38.2825,-0.55833333
10258,Alicante Airport,38.28222222,-0.55805556
10258,Alicante Airport,38.28361111,-0.55861111
10258,Alicante Elche,38.28222222,-0.55805556
10258,Alicante Airport,38.28222222,-0.55805556
10258,Alicante Elche,38.28222222,-0.55805556
10259,Alpine Casparis Municipal,30.38416667,-103.6830556
10259,Alpine Casparis Municipal,30.38416667,-103.6836111
10260,Alta Airport,69.97611111,23.38055556
10260,Alta Airport,69.97611111,23.37166667
10260,Alta Airport,69.9775,23.36472222
10260,Alta Airport,69.97611111,23.37166667
10260,Alta Airport,69.9775,23.36472222
10261,Houari Boumediene,36.69333333,3.21722222
10261,Houari Boumediene,36.69111111,3.21527778
10261,Houari Boumediene,36.69083333,3.21555556
10261,Houari Boumediene,36.6925,3.215
10261,Houari Boumediene,36.69111111,3.21527778
10261,Houari Boumediene,36.6925,3.215
10262,Albany Airport,-34.945,117.8058333
10262,Albany Airport,-34.94333333,117.8088889
10263,Alice International,27.74083333,-98.02722222
10263,Alice International,27.74083333,-98.02694444
10264,Alexander Bay Airport,-28.56722222,16.53638889
10264,Alexander Bay Airport,-28.575,16.53333333
10265,Asela Airport,7.58333333,39.06666667
10266,Alamogordo White Sands Regional,32.83972222,-105.99
10266,Alamogordo White Sands Regional,32.84,-105.9905556
10266,Alamogordo White Sands Regional,32.84138889,-105.9888889
10266,Alamogordo White Sands Regional,32.83944444,-105.9911111
10266,Alamogordo White Sands Regional,32.84,-105.9905556
10266,Alamogordo White Sands Regional,32.83944444,-105.9911111
10267,St. Louis Regional,38.89166667,-90.04833333
10267,St. Louis Regional,38.89,-90.04611111
10268,Waterloo Regional,42.55611111,-92.39972222
10268,Waterloo Regional,42.55694444,-92.40027778
10269,Neirab,36.18083333,37.22666667
10269,Aleppo International,36.18055556,37.22444444
10270,Alegrete Airport,-29.79972222,-55.76333333
10271,Alexandra Airport,-45.21388889,169.3694444
10271,Alexandra Airport,-45.21138889,169.3716667
10272,Alamosa Municipal,37.43666667,-105.8666667
10272,San Luis Valley Regional/Bergman Field,37.435,-105.8666667
10272,San Luis Valley Regional/Bergman Field,37.435,-105.8677778
10272,San Luis Valley Regional/Bergman Field,37.435,-105.8666667
10272,San Luis Valley Regional/Bergman Field,37.435,-105.8677778
10273,Alenquer Airport,-1.94055556,-54.74027778
10274,Alula Airport,11.98333333,50.78333333
10275,Walla Walla Regional,46.09472222,-118.2911111
10275,Walla Walla Regional,46.09472222,-118.2888889
10275,Walla Walla Regional,46.09527778,-118.2858333
10275,Walla Walla Regional,46.09472222,-118.2888889
10275,Walla Walla Regional,46.09527778,-118.2858333
10275,Walla Walla Regional,46.0925,-118.2841667
10276,Thomas C. Russell Field,32.91666667,-85.96666667
10276,Thomas C. Russell Field,32.91472222,-85.96305556
10277,Alexandria International,31.18777778,29.94805556
10277,Alexandria International,31.18361111,29.94861111
10278,Alitak Seaplane Base,56.89583333,-154.2458333
10279,Amarillo International,35.22722222,-101.7219444
10279,Rick Husband Amarillo International,35.22722222,-101.7219444
10279,Rick Husband Amarillo International,35.21944444,-101.7058333
10280,Ahmedabad Airport,23.06638889,72.62416667
10280,Ahmedabad Airport,23.07722222,72.63444444
10280,Ahmedabad International,23.07722222,72.63444444
10281,Ama Airport,-4.10166667,141.6697222
10281,Ama Airport,-4.10055556,141.6697222
10282,Amboin Airport,-4.6,143.5
10283,Arba Minch Airport,6.03611111,37.57694444
10283,Arba Minch Airport,6.03944444,37.59083333
10284,Rembiga,-8.56,116.0969444
10284,Selaparang,-8.56,116.0969444
10284,Selaparang,-8.56083333,116.0947222
10284,Selaparang,-8.56055556,116.0947222
10285,Animas Air Park,37.20388889,-107.8686111
10285,Animas Air Park,37.20305556,-107.8691667
10286,Puerto Armuelles Airport,8.26555556,-82.86555556
10286,Puerto Armuelles Airport,8.2675,-82.86472222
10287,Amman Airport,31.7225,35.99333333
10287,Queen Alia International,31.7225,35.99333333
10287,Queen Alia International,31.72333333,35.99416667
10288,Gratiot Community,43.32083333,-84.68666667
10288,Gratiot Community,43.32222222,-84.68805556
10289,Mao Airport,14.14722222,15.31444444
10289,Mao Airport,14.14638889,15.31527778
10290,Ampanihy Airport,-24.69944444,44.73305556
10290,Ampanihy Airport,-24.69944444,44.73277778
10291,Pattimura,-3.71027778,128.0897222
10292,Schiphol,52.30833333,4.76805556
10292,Schiphol,52.30861111,4.76388889
10294,Ames Municipal,41.99416667,-93.61833333
10294,Ames Municipal,41.99194444,-93.62194444
10295,Ammaroo Station,-21.74,135.24
10296,Ambatomainty Airport,-17.68555556,45.62527778
10296,Ambatomainty Airport,-17.68611111,45.625
10297,Anaheim-Disneyland HP,33.81666667,-117.9333333
10298,Anniston/Calhoun County,33.59027778,-85.85583333
10298,Anniston Metro,33.58805556,-85.85805556
10298,Anniston Regional,33.58805556,-85.85805556
10298,Anniston Metro,33.58805556,-85.85805556
10298,Anniston Regional,33.58805556,-85.85805556
10299,Anchorage International,61.16916667,-149.9852778
10299,Ted Stevens Anchorage International,61.17444444,-149.9961111
10299,Ted Stevens Anchorage International,61.17444444,-149.9963889
10299,Ted Stevens Anchorage International,61.17416667,-149.9980556
10299,Ted Stevens Anchorage International,61.17444444,-149.9963889
10299,Ted Stevens Anchorage International,61.17416667,-149.9980556
10300,Anderson Regional,34.49361111,-82.71
10300,Anderson Regional,34.49444444,-82.70944444
10301,Avrille,47.49722222,-0.57277778
10301,Angers Marce,47.56027778,-0.31277778
10301,Angers Marce,47.56,-0.31277778
10302,Cerro Moreno International,-23.43944444,-70.44277778
10302,Cerro Moreno International,-23.44444444,-70.445
10302,Andres Sabella International,-23.44444444,-70.445
10302,Cerro Moreno International,-23.44444444,-70.445
10302,Andres Sabella International,-23.44444444,-70.445
10303,Brie-Champniers,45.72944444,0.21972222
10303,Brie-Champniers,45.72944444,0.21833333
10303,Angouleme Airport,45.72944444,0.21833333
10303,Angouleme Brie Champniers,45.72944444,0.21833333
10303,Brie Champniers,45.72944444,0.21833333
10303,Angouleme Brie Champniers,45.72944444,0.21833333
10304,Aniak Airport,61.58166667,-159.5430556
10305,Etimesgut,39.95166667,32.68805556
10305,Etimesgut,39.95027778,32.6875
10305,Etimesgut,39.95194444,32.68611111
10305,Etimesgut,39.95027778,32.6875
10305,Etimesgut,39.95194444,32.68611111
10306,Antsirabato,-15,50.32138889
10306,Antsirabato,-14.99944444,50.32027778
10307,Annette Island,55.03694444,-131.5705556
10307,Annette Island,55.0425,-131.5722222
10307,Annette Island,55.04222222,-131.5708333
10307,Annette Island,55.0425,-131.5722222
10307,Annette Island,55.04222222,-131.5708333
10308,Angoche Airport,-16.17777778,39.93694444
10308,Angoche Airport,-16.1825,39.945
10308,Angoche Airport,-16.1825,39.94527778
10308,Angoche Airport,-16.1825,39.945
10308,Angoche Airport,-16.1825,39.94527778
10309,Lee,38.94277778,-76.56888889
10309,Lee,38.94277778,-76.56833333
10310,Antwerp-Brussels North,51.19,4.46
10310,Deurne,51.18944444,4.46027778
10310,Deurne,51.19,4.46305556
10311,Andahuaylas Airport,-13.70861111,-73.35111111
10311,Andahuaylas Airport,-13.70888889,-73.35138889
10311,Andahuaylas Airport,-13.70888889,-73.35166667
10311,Andahuaylas Airport,-13.70888889,-73.35138889
10312,Antigua,17.10833333,-61.76388889
10312,V C Bird International,17.1375,-61.79
10312,V C Bird International,17.13666667,-61.79277778
10312,V C Bird International,17.13611111,-61.79388889
10312,V C Bird International,17.13666667,-61.79277778
10312,V C Bird International,17.13611111,-61.79388889
10313,Anvik Airport,62.64777778,-160.1888889
10313,Anvik Airport,62.64722222,-160.19
10314,Andoya,69.29305556,16.14166667
10314,Andoya,69.2925,16.14416667
10317,Lima Allen County,40.70833333,-84.02666667
10317,Lima Allen County,40.70833333,-84.02694444
10318,Ancona/Falconara,43.6175,13.36416667
10318,Falconara,43.61638889,13.36222222
10318,Ancona Falconara,43.61638889,13.36222222
10318,Falconara,43.61638889,13.36222222
10318,Ancona Falconara,43.61638889,13.36222222
10319,Aomori Airport,40.73472222,140.6897222
10319,Aomori Airport,40.73333333,140.6886111
10320,Karpathos Airport,35.42388889,27.14722222
10320,Karpathos Airport,35.42083333,27.14555556
10320,Karpathos Airport,35.42111111,27.14583333
10320,Karpathos Airport,35.42083333,27.14555556
10320,Karpathos Airport,35.42111111,27.14583333
10321,Paso de Los Libres Airport,-29.69,-57.14861111
10321,Paso de Los Libres Airport,-29.68944444,-57.15194444
10322,Altoona-Blair County,40.29722222,-78.32
10322,Altoona-Blair County,40.29638889,-78.32
10323,Sultan Abdul Halim,6.19111111,100.4038889
10323,Sultan Abdul Halim,6.18972222,100.3983333
10324,Amook Bay Airport,57.45472222,-153.8130556
10325,Arapahoe County,39.57277778,-104.8477778
10325,Centennial,39.57277778,-104.8477778
10325,Centennial,39.57027778,-104.8494444
10325,Centennial,39.57,-104.8494444
10325,Centennial,39.57,-104.8491667
10326,Apolo Airport,-14.73666667,-68.41305556
10326,Apolo Airport,-14.74027778,-68.41111111
10326,Apolo Airport,-14.74,-68.4075
10326,Apolo Airport,-14.73888889,-68.41111111
10326,Apolo Airport,-14.74027778,-68.41111111
10326,Apolo Airport,-14.73888889,-68.41111111
10326,Apolo Airport,-14.73888889,-68.41138889
10327,Napa County,38.21222222,-122.28
10327,Napa County,38.21305556,-122.2805556
10327,Napa County,38.21361111,-122.2802778
10327,Napa County,38.21305556,-122.2805556
10328,San Juan Aposento Airport,-15.35,-75.16666667
10329,Naples Municipal,26.15277778,-81.77527778
10329,Naples Municipal,26.15222222,-81.77583333
10329,Naples Municipal,26.1525,-81.77555556
10329,Naples Municipal,26.15222222,-81.77583333
10329,Naples Municipal,26.1525,-81.77555556
10330,Phillips AAF,39.46611111,-76.16972222
10330,Phillips AAF,39.46611111,-76.16888889
10330,Phillips AAF,39.46555556,-76.16833333
10331,Apataki Airport,-15.56666667,-146.4166667
10331,Apataki Airport,-15.57527778,-146.4130556
10332,Nampula Airport,-15.10166667,39.28722222
10332,Nampula Airport,-15.10555556,39.28166667
10333,Phelps/Collins,45.08166667,-83.55583333
10333,Alpena County Regional,45.07805556,-83.56027778
10334,Apartado Airport,7.03333333,-77.2
10335,April River Airport,-4.67361111,142.5377778
10335,April River Airport,-4.67638889,142.54
10336,Marion County Brown Field,35.06055556,-85.58527778
10337,Calf Apple Valley,34.52638889,-117.2127778
10337,Apple Valley Airport,34.52638889,-117.2127778
10337,Apple Valley Airport,34.57527778,-117.1861111
10338,Faleolo,-13.83333333,-172
10338,Faleolo International,-13.82833333,-172.0119444
10338,Faleolo International,-13.83,-172.0083333
10339,Qaisumah Airport,28.33527778,46.125
10339,Hafr Al Batin,28.33527778,46.125
10339,Al Qaisumah,28.33527778,46.125
10339,Hafr Al Batin,28.33527778,46.125
10339,Qaisumah Airport,28.33527778,46.125
10339,Hafr Al Batin,28.33527778,46.125
10339,Hafr Al Batin,28.33611111,46.12694444
10340,King Hussein International,29.6125,35.01944444
10340,Aqaba King Hussein International,29.61111111,35.01777778
10340,King Hussein International,29.61111111,35.01777778
10340,Aqaba King Hussein International,29.61111111,35.01777778
10340,King Hussein International,29.61111111,35.01777778
10342,Rodriguez Ballon International,-16.33777778,-71.555
10342,Rodriguez Ballon International,-16.34111111,-71.58305556
10342,Rodriguez Ballon International,-16.34055556,-71.57083333
10342,Rodriguez Ballon International,-16.34111111,-71.58305556
10342,Rodriguez Ballon International,-16.34055556,-71.57083333
10343,Saqani Airport,-16.75,179.35
10344,Girdwood Airport,60.96666667,-149.1236111
10344,Girdwood Airport,60.96611111,-149.1258333
10344,Girdwood Airport,60.96888889,-149.1194444
10344,Girdwood Airport,60.96611111,-149.1258333
10344,Girdwood Airport,60.96888889,-149.1194444
10345,Russellville Regional,35.26472222,-93.09388889
10345,Russellville Regional,35.25916667,-93.09333333
10345,Russellville Regional,35.25916667,-93.0925
10346,Dennis F Cantrell Field,35.08083333,-92.425
10346,Dennis F Cantrell Field,35.08111111,-92.42444444
10346,Dennis F Cantrell Field,35.08083333,-92.425
10346,Dennis F Cantrell Field,35.08111111,-92.42444444
10347,Acadiana Reg,30.03777778,-91.88388889
10347,Acadiana Regional,30.0375,-91.88388889
10347,Acadiana Regional,30.03777778,-91.88388889
10348,Ann Arbor Municipal,42.22277778,-83.74444444
10348,Ann Arbor Municipal,42.22305556,-83.74555556
10349,Wien Arctic Village,68.1375,-145.5244444
10349,Arctic Village Airport,68.11472222,-145.5794444
10350,Arcadia Municipal,-8.25,124.75
10351,Arecibo Airport,18.45,-66.67583333
10351,Antonio/Nery/Juarbe Pol,18.45027778,-66.67583333
10351,Antonio/Nery/Juarbe Pol,18.45,-66.67527778
10351,Antonio/Nery/Juarbe Pol,18.45083333,-66.67555556
10351,Antonio/Nery/Juarbe Pol,18.45,-66.67527778
10351,Antonio/Nery/Juarbe Pol,18.45083333,-66.67555556
10352,Walnut Ridge Regional,36.125,-90.92638889
10352,Walnut Ridge Regional,36.12472222,-90.925
10353,Arkhangelsk Airport,64.56666667,40.53333333
10353,Talagi,64.56666667,40.53333333
10353,Talagi,64.60027778,40.71666667
10353,Arkhangelsk Airport,64.60027778,40.71666667
10353,Talagi,64.60027778,40.71666667
10354,Chacalluta,-18.33305556,-70.33805556
10354,Chacalluta,-18.34861111,-70.33861111
10355,Arusha Airport,-3.36416667,36.62472222
10355,Arusha Airport,-3.36666667,36.62555556
10356,Armidale Airport,-30.52833333,151.6233333
10356,Armidale Airport,-30.52805556,151.6172222
10357,Arlanda,59.66194444,17.93388889
10357,Arlanda,59.65194444,17.91861111
10358,Aragip Airport,-9.87055556,149.4836111
10358,Aragip Airport,-9.87083333,149.4841667
10358,Aragip Airport,-9.87333333,149.4830556
10359,Troncal,7.02111111,-71.38888889
10359,Arauquita Airport,7.02111111,-71.38888889
10359,Troncal,7.02111111,-71.38888889
10359,Arauquita Airport,7.02111111,-71.38888889
10360,Aragarcas Airport,-15.9,-52.23333333
10360,Aragarcas Airport,-15.89944444,-52.24111111
10361,Watertown International,43.99083333,-76.02138889
10361,Watertown International,43.99194444,-76.02055556
10361,Watertown International,43.99194444,-76.01944444
10361,Watertown International,43.99194444,-76.02055556
10361,Watertown International,43.99194444,-76.01944444
10362,Aracatuba Airport,-21.14361111,-50.42611111
10362,Aracatuba Airport,-21.14138889,-50.42472222
10362,Aracatuba Airport,-21.14138889,-50.42444444
10362,Aracatuba Airport,-21.14138889,-50.42472222
10362,Aracatuba Airport,-21.14138889,-50.42444444
10363,Lakeland/Noble F. Lee Memorial Field,45.92805556,-89.73083333
10364,Arad Airport,46.18333333,21.26666667
10364,Arad Airport,46.17666667,21.26194444
10364,Arad International,46.17666667,21.26194444
10364,Arad Airport,46.17666667,21.26194444
10364,Arad International,46.17666667,21.26194444
10365,Asbury Park/Monmouth County,40.18333333,-74.11666667
10366,Ararat Airport,-37.31194444,142.9905556
10366,Ararat Airport,-37.30944444,142.9886111
10367,N'zeto North,-7.2225,12.86861111
10367,N'zeto Airport,-7.25944444,12.86277778
10367,N'zeto Airport,-7.25888889,12.8625
10368,Assab International,13.07,42.63833333
10368,Assab International,13.07333333,42.63694444
10368,Assab International,13.07166667,42.645
10369,Ashkhabad Airport,37.98166667,58.36083333
10369,Ashgabat Airport,37.98166667,58.36083333
10369,Ashgabat Airport,37.98694444,58.36111111
10370,Ascension Airport,-15.91666667,-63.15
10371,Andros Town Airport,24.69777778,-77.79611111
10371,Fresh Creek,24.69805556,-77.79555556
10372,Aspen Pitkin County Sardy Field,39.22416667,-106.8688889
10372,Aspen Pitkin County Sardy Field,39.22305556,-106.8688889
10372,Aspen Pitkin County Sardy Field,39.22194444,-106.8683333
10372,Aspen Pitkin County Sardy Field,39.22305556,-106.8688889
10372,Aspen Pitkin County Sardy Field,39.22194444,-106.8683333
10373,Ashburton Airport,-43.905,171.7966667
10373,Ashburton Airport,-43.90277778,171.7997222
10374,Nashua Airport,42.77888889,-71.50944444
10374,Boire Field,42.77888889,-71.50944444
10374,Boire Field,42.78166667,-71.51472222
10374,Boire Field,42.7825,-71.51416667
10374,Boire Field,42.78166667,-71.51472222
10374,Boire Field,42.7825,-71.51416667
10375,Ascension Aux Af,-7.97027778,-14.39361111
10375,Ascension Aux Af,-7.96972222,-14.39361111
10376,Amami,28.41694444,129.6975
10376,Amami,28.43055556,129.7125
10377,Yamoussoukro Airport,6.90555556,-5.36416667
10377,Yamoussoukro Airport,6.90305556,-5.36611111
10378,Harrison County,32.52166667,-94.30805556
10378,Harrison County,32.52055556,-94.30777778
10379,Yohannes IV,15.29111111,38.91027778
10379,Asmara International,15.29333333,38.90888889
10379,Asmara International,15.29194444,38.91111111
10379,Asmara International,15.28777778,38.90805556
10380,Talladega Municipal,33.56972222,-86.05083333
10380,Talladega Municipal,33.56944444,-86.05111111
10381,Asosa Airport,10.04722222,34.53666667
10381,Asosa Airport,10.02055556,34.59888889
10381,Asosa Airport,10.02055556,34.58222222
10381,Asosa Hidase,10.02055556,34.58222222
10381,Asosa Airport,10.02055556,34.59888889
10381,Asosa Hidase,10.02055556,34.58222222
10382,Alice Springs Airport,-23.80333333,133.8841667
10382,Alice Springs Airport,-23.80833333,133.9008333
10382,Alice Springs Airport,-23.80444444,133.8952778
10382,Alice Springs Airport,-23.80833333,133.9008333
10382,Alice Springs Airport,-23.80444444,133.8952778
10383,Austin Airport,39.46888889,-117.1961111
10383,Austin Airport,39.46805556,-117.1952778
10383,Austin Airport,39.46805556,-117.1975
10383,Austin Airport,39.46805556,-117.1952778
10383,Austin Airport,39.46805556,-117.1975
10384,Kayseri Airport,38.70416667,35.50972222
10384,Erkilet,38.77027778,35.49555556
10384,Kayseri Airport,38.77027778,35.49555556
10384,Erkilet,38.77027778,35.49555556
10384,Kayseri Airport,38.77027778,35.49555556
10385,Astoria Regional,46.15972222,-123.88
10385,Astoria Regional,46.15805556,-123.8786111
10386,Silvio Pettirossi International,-25.23916667,-57.51916667
10386,Silvio Pettirossi International,-25.24111111,-57.51694444
10386,Silvio Pettirossi International,-25.23972222,-57.51916667
10387,Aswan International,23.965,32.82166667
10387,Aswan International,23.96444444,32.82
10388,John F Kennedy Memorial,46.54861111,-90.91861111
10388,John F Kennedy Memorial,46.54861111,-90.91888889
10389,Ashley Municipal,46.02388889,-99.35277778
10389,Ashley Municipal,46.02388889,-99.3525
10389,Ashley Municipal,46.02472222,-99.35166667
10389,Ashley Municipal,46.02305556,-99.35277778
10389,Ashley Municipal,46.02388889,-99.3525
10389,Ashley Municipal,46.02305556,-99.35277778
10390,Anta Huaraz,-9.34722222,-77.6
10391,Atbara Airport,17.70972222,34.05722222
10392,Arthur's Town Airport,24.62944444,-75.67388889
10393,Antlers Municipal,34.19277778,-95.64972222
10393,Antlers Municipal,34.1925,-95.64972222
10393,Antlers Municipal,34.19361111,-95.65
10394,Eleftherios Venizelos International,37.93666667,23.94444444
10395,Artigas International,-30.4,-56.50833333
10395,Artigas International,-30.40083333,-56.50777778
10396,Atqasuk Edward Burnell Sr. Memorial,70.4675,-157.4519444
10396,Atqasuk Edward Burnell Sr. Memorial,70.46722222,-157.4358333
10396,Atqasuk Edward Burnell Sr. Memorial,70.46722222,-157.4355556
10396,Atqasuk Edward Burnell Sr. Memorial,70.46722222,-157.4358333
10396,Atqasuk Edward Burnell Sr. Memorial,70.46722222,-157.4355556
10397,Atlanta Municipal,33.64083333,-84.42722222
10397,William B. Hartsfield Atlanta International,33.64083333,-84.42722222
10397,Hartsfield-Jackson Atlanta International,33.64083333,-84.42722222
10397,Hartsfield-Jackson Atlanta International,33.63666667,-84.42805556
10397,Hartsfield-Jackson Atlanta International,33.63666667,-84.42777778
10397,Hartsfield-Jackson Atlanta International,33.63666667,-84.42805556
10397,Hartsfield-Jackson Atlanta International,33.63666667,-84.42777778
10398,Altamira Airport,-3.25333333,-52.25305556
10398,Altamira Airport,-3.25388889,-52.25388889
10398,Altamira Airport,-3.25305556,-52.25388889
10398,Altamira Airport,-3.25388889,-52.25388889
10398,Altamira Airport,-3.25305556,-52.25388889
10399,Namatanai Airport,-3.67138889,152.4363889
10399,Namatanai Airport,-3.66944444,152.4380556
10399,Namatanai Airport,-3.66972222,152.4380556
10399,Namatanai Airport,-3.66944444,152.4380556
10399,Namatanai Airport,-3.66972222,152.4380556
10400,Ohio University Snyder Field,39.21083333,-82.23166667
10400,Ohio University Snyder Field,39.21194444,-82.22916667
10400,Ohio University,39.21194444,-82.22916667
10400,Ohio University Snyder Field,39.21194444,-82.22916667
10400,Ohio University,39.21194444,-82.22916667
10401,Aitape Airport,-3.1425,142.3466667
10402,Amritsar Airport,31.70694444,74.79722222
10402,Amritsar Airport,31.71138889,74.79638889
10402,Amritsar International,31.71138889,74.79638889
10402,Amritsar Airport,31.71138889,74.79638889
10402,Amritsar International,31.71138889,74.79638889
10403,Atar Airport,20.49944444,-13.04638889
10403,Atar Airport,20.50666667,-13.04305556
10404,Artesia Municipal,32.84833333,-104.4669444
10404,Artesia Municipal,32.8525,-104.4677778
10404,Artesia Municipal,32.85166667,-104.4672222
10404,Artesia Municipal,32.85194444,-104.4675
10404,Artesia Municipal,32.8525,-104.4677778
10404,Artesia Municipal,32.85194444,-104.4675
10405,Atmautluak Airport,60.8675,-162.2708333
10405,Atmautluak Airport,60.86722222,-162.2733333
10405,Atmautluak Airport,60.86777778,-162.2741667
10405,Atmautluak Airport,60.86722222,-162.2733333
10405,Atmautluak Airport,60.86777778,-162.2741667
10406,Casco Cove,52.82583333,173.1727778
10406,Casco Cove CGS,52.8325,173.1755556
10407,Ati Airport,13.24222222,18.3075
10407,Ati Airport,13.23972222,18.31333333
10407,Ati Airport,13.23972222,18.31555556
10407,Ati Airport,13.23972222,18.31333333
10407,Ati Airport,13.23972222,18.31555556
10408,Outagamie County Regional,44.25777778,-88.52
10408,Outagamie County Regional,44.25805556,-88.51916667
10408,Appleton International,44.25805556,-88.51916667
10408,Outagamie County Regional,44.25805556,-88.51916667
10408,Appleton International,44.25805556,-88.51916667
10409,Watertown Municipal,44.90888889,-97.15416667
10409,Watertown Regional,44.90888889,-97.15416667
10409,Watertown Regional,44.91388889,-97.15472222
10410,Assiut Airport,27.04638889,31.07861111
10411,Reina Beatrix International,12.50222222,-70.01388889
10411,Reina Beatrix International,12.50222222,-70.01388889
10411,Reina Beatrix International,12.50138889,-70.01555556
10412,Santiago Perez,7.07027778,-70.74055556
10412,Santiago Perez,7.06888889,-70.73694444
10413,Augustus Downs Airport,-18.50694444,139.8816667
10413,Augustus Downs Airport,-18.51555556,139.8786111
10414,Augusta,44.31805556,-69.79666667
10414,Augusta State,44.32055556,-69.79722222
10415,Abu Dhabi International,24.43305556,54.64888889
10415,Abu Dhabi International,24.44333333,54.65277778
10416,Alakanuk New,62.68916667,-164.6108333
10416,Alakanuk Airport,62.68,-164.66
10416,Alakanuk Airport,62.68305556,-164.7222222
10416,Alakanuk Airport,62.68,-164.66
10416,Alakanuk Airport,62.68305556,-164.7222222
10417,Austin Municipal,43.66444444,-92.93388889
10417,Austin Municipal,43.66277778,-92.93305556
10418,Auburn Municipal,38.95277778,-121.0819444
10418,Auburn Municipal,38.95472222,-121.0816667
10419,Auburn-Opelika,32.61527778,-85.43194444
10419,Auburn University Regional,32.615,-85.43388889
10420,Aguan Papua N.G.,-9.91666667,149.3333333
10421,Hiva Oa/Atuona,-9.76666667,-139.0166667
10421,Hiva Oa/Atuona,-9.76888889,-139.0113889
10421,Hiva Oa/Atuona,-9.76611111,-139.01
10421,Hiva Oa/Atuona,-9.76583333,-139.0097222
10421,Hiva Oa/Atuona,-9.76888889,-139.0113889
10421,Hiva Oa/Atuona,-9.76583333,-139.0097222
10422,Aurillac Airport,44.8975,2.41805556
10422,Aurillac Airport,44.89111111,2.42194444
10423,Austin - Bergstrom International,30.19444444,-97.67
10423,Austin - Bergstrom International,30.19444444,-97.67
10424,Wausau Downtown,44.92333333,-89.62305556
10424,Wausau Downtown,44.92638889,-89.62694444
10424,Wausau Downtown,44.92638889,-89.62666667
10424,Wausau Downtown,44.92638889,-89.62694444
10424,Wausau Downtown,44.92638889,-89.62666667
10425,Araguaina Airport,-7.2,-48.2
10425,Araguaina Airport,-7.22777778,-48.24055556
10426,Anatom,-20.25333333,169.7613889
10426,Aneityum Airport,-20.24916667,169.7708333
10426,Aneityum Airport,-20.24944444,169.7708333
10426,Aneityum Airport,-20.24916667,169.7708333
10426,Aneityum Airport,-20.24944444,169.7708333
10427,Aurora Municipal,41.77083333,-88.47277778
10427,Aurora Municipal,41.77194444,-88.47555556
10428,Aviano AFB,46.03194444,12.59722222
10428,Aviano AB,46.03,12.59888889
10428,Aviano AB,46.03111111,12.59638889
10428,Aviano AB,46.03,12.59888889
10428,Aviano AB,46.03111111,12.59638889
10430,Maximo Gomez,22.02638889,-78.79055556
10430,Maximo Gomez,22.02694444,-78.78972222
10431,Asheville Regional,35.435,-82.54111111
10431,Asheville Regional,35.43611111,-82.54194444
10431,Asheville Regional,35.43444444,-82.54277778
10431,Asheville Regional,35.43611111,-82.54194444
10431,Asheville Regional,35.43444444,-82.54277778
10432,Caumont,43.90722222,4.90194444
10432,Caumont,43.90666667,4.90194444
10432,Avignon Caumont,43.90666667,4.90194444
10432,Caumont,43.90722222,4.90194444
10432,Avignon Caumont,43.90666667,4.90194444
10432,Avignon Caumont,43.90722222,4.90194444
10433,Avon Park Municipal,27.5925,-81.52694444
10433,Avon Park Executive,27.59138889,-81.52888889
10434,Wilkes Barre Scranton International,41.33916667,-75.72583333
10434,Wilkes Barre Scranton International,41.33861111,-75.72333333
10434,Wilkes Barre Scranton International,41.33833333,-75.72333333
10434,Wilkes Barre Scranton International,41.33861111,-75.72333333
10434,Wilkes Barre Scranton International,41.33833333,-75.72333333
10435,Avalon Airport,-38.04083333,144.4680556
10435,Avalon Airport,-38.03944444,144.4694444
10436,Avra Valley,32.40916667,-111.2180556
10436,Marana Regional,32.40944444,-111.2183333
10437,Catalina,33.405,-118.4158333
10438,Awasa Airport,7.06111111,38.4875
10438,Lake Awasa,7.06666667,38.49055556
10439,Wake Island Airfield,19.28,166.6402778
10439,Wake Island Airfield,19.28,166.6402778
10439,Wake Island Airfield,19.2825,166.6366667
10440,West Memphis Municipal,35.135,-90.23444444
10441,Awar Airport,-4.12416667,144.8702778
10442,Andrews County,32.32944444,-102.5302778
10442,Andrews County,32.33111111,-102.5294444
10442,Andrews County,32.33083333,-102.5297222
10442,Andrews County,32.33111111,-102.5294444
10442,Andrews County,32.33083333,-102.5297222
10443,Ahwaz Airport,31.33777778,48.75972222
10443,Ahwaz Airport,31.3375,48.76194444
10444,Wallblake,18.21027778,-63.0575
10444,Clayton J. Lloyd International,18.21027778,-63.0575
10444,Clayton J. Lloyd International,18.20472222,-63.05388889
10444,Clayton J. Lloyd,18.20472222,-63.05388889
10444,Clayton J Lloyd International,18.20472222,-63.05388889
10444,Clayton J Lloyd,18.20472222,-63.05388889
10445,Maxson Airfield,44.31666667,-75.89972222
10446,Aramac Airport,-22.95805556,145.2425
10446,Aramac Airport,-22.96666667,145.2416667
10446,Aramac Airport,-22.96333333,145.2533333
10446,Aramac Airport,-22.96333333,145.2516667
10446,Aramac Airport,-22.96666667,145.2416667
10446,Aramac Airport,-22.96333333,145.2516667
10447,Dimokritos,40.85555556,25.95
10447,Dimokritos,40.85583333,25.95638889
10447,Dimokritos,40.85583333,25.95611111
10447,Dimokritos,40.85583333,25.95638889
10447,Dimokritos,40.85583333,25.95611111
10448,El Eden,4.45638889,-75.76805556
10448,El Eden,4.45166667,-75.76611111
10448,El Eden,4.45083333,-75.76666667
10448,El Eden,4.45166667,-75.76611111
10448,El Eden,4.45083333,-75.76666667
10449,Chandler Field,45.86722222,-95.39416667
10449,Chandler Field,45.86638889,-95.39472222
10450,Spring Point Airport,22.44194444,-73.97055556
10450,Spring Point Airport,22.44194444,-73.97083333
10450,Spring Point Airport,22.44194444,-73.97055556
10450,Spring Point Airport,22.44194444,-73.97083333
10450,Spring Point Airport,22.44194444,-73.97055556
10451,Altus Municipal,34.69805556,-99.33805556
10451,Altus/Quartz Mountain Regional,34.69888889,-99.33833333
10452,Akita Airport,39.61555556,140.2186111
10453,Axum Airport,14.12083333,38.71666667
10453,Axum Airport,14.14694444,38.77138889
10453,Axum Airport,14.14694444,38.7725
10453,Axum Atse Yohannes IV,14.14694444,38.7725
10453,Axum Airport,14.14694444,38.77138889
10453,Axum Atse Yohannes IV,14.14694444,38.7725
10454,Neil Armstrong,40.49333333,-84.29888889
10454,Neil Armstrong,40.49361111,-84.29805556
10455,Angel Fire,36.42055556,-105.2894444
10455,Angel Fire,36.42194444,-105.29
10456,Anthony Lagoon Airport,-18.01666667,135.55
10457,Ayacucho Airport,-13.13333333,-74.2
10457,Coronel FAP Alfredo Mendivil Duarte,-13.15472222,-74.20444444
10458,Ayers Rock Connellan,-25.18611111,130.9755556
10459,Ayr Airport,-19.59666667,147.3244444
10459,Ayr Airport,-19.58444444,147.3291667
10459,Ayr Airport,-19.59666667,147.325
10459,Ayr Airport,-19.58444444,147.3291667
10459,Ayr Airport,-19.59666667,147.325
10459,Ayr Airport,-19.59305556,147.3241667
10460,Waycross Ga,31.24916667,-82.39555556
10460,Waycross-Ware County,31.24861111,-82.39666667
10460,Waycross-Ware County,31.24833333,-82.39527778
10461,Antalya Airport,36.90555556,30.79055556
10461,Antalya Airport,36.89861111,30.80055556
10461,Antalya Airport,36.89972222,30.7975
10462,Ayawasi Airport,-1.14166667,132.4783333
10462,Ayawasi Airport,-1.15972222,132.4633333
10462,Ayawasi Airport,-1.15972222,132.4641667
10463,Valle,35.65083333,-112.1480556
10463,Valle,35.65055556,-112.1480556
10464,H. A. Clark Memorial Field,35.30222222,-112.1941667
10464,H. A. Clark Memorial Field,35.30555556,-112.1944444
10465,Glendale Municipal,33.52722222,-112.2952778
10465,Glendale Municipal,33.52694444,-112.2952778
10466,Williams Gateway,33.30777778,-111.6555556
10466,Phoenix - Mesa Gateway,33.30777778,-111.6555556
10467,Yazd Airport,31.89777778,54.28166667
10467,Yazd Shahid Sadooghi,31.905,54.27638889
10467,Shahid Sadooghi,31.905,54.27638889
10467,Yazd Shahid Sadooghi,31.905,54.27638889
10467,Shahid Sadooghi,31.905,54.27638889
10467,Shahid Sadooghi International,31.905,54.27638889
10468,Pablo L. Sidar,19.09361111,-102.3936111
10469,Kalamazoo/Battle Creek International,42.23638889,-85.55361111
10469,Kalamazoo/Battle Creek International,42.23444444,-85.55166667
10470,Samana El Catey International,19.26666667,-69.75
10470,El Catey International,19.26944444,-69.73694444
10471,Biddeford Municipal,43.46416667,-70.4725
10472,Sugarloaf Regional,45.08611111,-70.21611111
10472,Sugarloaf Regional,45.08527778,-70.21638889
10472,Sugarloaf Regional,45.08555556,-70.21638889
10472,Sugarloaf Regional,45.08527778,-70.21638889
10472,Sugarloaf Regional,45.08555556,-70.21638889
10473,Bialla Airport,-5.31666667,151.0333333
10473,Bialla Airport,-5.33055556,151.0080556
10474,Beale AFB,39.13611111,-121.4355556
10474,Beale AFB,39.13611111,-121.4366667
10475,Barranca de Upia Airport,4.56916667,-72.96722222
10476,Barksdale AFB,32.50166667,-93.6625
10476,Barksdale AFB,32.50194444,-93.66277778
10476,Barksdale AFB,32.50194444,-93.6625
10476,Barksdale AFB,32.50194444,-93.66277778
10476,Barksdale AFB,32.50194444,-93.6625
10477,Barcelonnette Airport,44.38333333,6.63333333
10478,Barnes Municipal,42.16,-72.71638889
10478,Barnes Municipal,42.15805556,-72.71583333
10478,Westfield Barnes Regional,42.15805556,-72.71583333
10478,Barnes Municipal,42.15805556,-72.71583333
10478,Westfield Barnes Regional,42.15805556,-72.71583333
10479,Baguio Airport,16.37666667,120.6177778
10479,Baguio Airport,16.375,120.6197222
10479,Baguio Airport,16.375,120.6188889
10479,Baguio Airport,16.375,120.6197222
10479,Baguio Airport,16.375,120.6188889
10480,Bahrain International,26.27083333,50.6375
10480,Bahrain International,26.26805556,50.63694444
10480,Bahrain International,26.27083333,50.63361111
10480,Bahrain International,26.26805556,50.63694444
10480,Bahrain International,26.27083333,50.63361111
10481,Buenos Aires Airport,9.16583333,-83.3325
10481,Buenos Aires Airport,9.16361111,-83.33
10481,Buenos Aires Airport,9.16333333,-83.33027778
10482,Bina International,40.4675,50.04666667
10482,Bina International,40.4675,50.04666667
10482,Heydar Aliyev International,40.4675,50.04666667
10482,Heydar Aliyev International,40.46972222,50.05166667
10482,Heydar Aliyev International,40.47222222,50.04944444
10482,Heydar Aliyev International,40.46972222,50.05166667
10482,Heydar Aliyev International,40.47222222,50.04944444
10483,Batman Airport,37.93166667,41.11888889
10483,Batman Airport,37.92888889,41.11666667
10484,Lander County,40.5975,-116.8722222
10484,Battle Mountain Airport,40.59916667,-116.8744444
10485,Udorn AB,17.38305556,102.8
10486,Ernesto Cortissoz International,10.89611111,-74.77888889
10486,Ernesto Cortissoz,10.88944444,-74.78055556
10486,Ernesto Cortissoz,10.88972222,-74.78083333
10487,Baker AAF,55.36666667,-133.6
10488,Barth Airport,54.33888889,12.71138889
10489,Bauru Airport,-22.345,-49.05388889
10489,Bauru-Arealva,-22.15777778,-49.06833333
10489,Bauru-Arealva,-22.16111111,-49.07
10490,Baotou Airport,40.66666667,109.9833333
10490,Baotou Airport,40.55944444,109.9983333
10491,Barnaul Airport,53.36388889,83.54194444
10491,Barnaul Airport,53.36333333,83.53972222
10491,Barnaul Airport,53.36333333,83.53944444
10491,Barnaul Airport,53.36333333,83.53972222
10491,Mikhaylovka,53.36333333,83.53972222
10491,Barnaul Airport,53.36333333,83.53972222
10491,Mikhaylovka,53.36333333,83.53972222
10492,Baia Mare Airport,47.65,23.46666667
10492,Baia Mare Airport,47.65833333,23.46611111
10492,Maramures,47.65833333,23.46611111
10493,Balmaceda Airport,-45.91666667,-71.695
10493,Balmaceda Airport,-45.91611111,-71.68944444
10494,Bay City Municipal,28.97305556,-95.86333333
10494,Bay City Municipal,28.97333333,-95.86333333
10494,Bay City Regional,28.97333333,-95.86333333
10494,Bay City Municipal,28.97333333,-95.86333333
10494,Bay City Regional,28.97333333,-95.86333333
10495,N Eng Heliport,42.50833333,-71.18333333
10497,Bhubaneswar Airport,20.24361111,85.82
10497,Bhubaneswar Airport,20.24444444,85.81777778
10498,Berbera International,10.39166667,44.95
10498,Berbera International,10.38916667,44.94111111
10498,Berbera International,10.38916667,44.94138889
10498,Berbera International,10.38916667,44.94111111
10498,Berbera International,10.38916667,44.94138889
10499,Cocoa Point,17.55555556,-61.765
10499,Cocoa Point,17.55555556,-61.765
10500,Baillif,16.01611111,-61.73888889
10500,Baillif,16.01333333,-61.74222222
10500,Baillif,16.01361111,-61.74305556
10500,Baillif,16.01333333,-61.74222222
10500,Baillif,16.01361111,-61.74305556
10501,Blackbushe Airport,51.32444444,-0.84055556
10501,Blackbushe Airport,51.32388889,-0.8475
10501,Blackbushe Airport,51.32388889,-0.84777778
10502,Berberati Airport,4.21916667,15.78805556
10502,Berberati Airport,4.22138889,15.78638889
10502,Berberati Airport,4.22166667,15.78638889
10502,Berberati Airport,4.22138889,15.78638889
10502,Berberati Airport,4.22166667,15.78638889
10503,Baneasa,44.5,26.1
10503,Aurel Vlaicu,44.50333333,26.10277778
10503,Baneasa Aurel Vlaicu,44.50333333,26.10277778
10503,Aurel Vlaicu,44.50333333,26.10277778
10503,Baneasa Aurel Vlaicu,44.50333333,26.10277778
10504,Blue Bell Airport,40.13666667,-75.2675
10504,Wings Field,40.13666667,-75.2675
10504,Wings Field,40.1375,-75.26527778
10505,Bambari Airport,5.84583333,20.64972222
10505,Bambari Airport,5.84583333,20.64972222
10505,Bambari Airport,5.84694444,20.64972222
10506,Zambezi Airport,-13.53722222,23.11
10506,Zambezi Airport,-13.5375,23.10777778
10507,Gustavo Rizo,20.36444444,-74.50638889
10507,Gustavo Rizo,20.36527778,-74.50611111
10508,Virginia Tech/Montgomery Executive,37.20722222,-80.40694444
10508,Virginia Tech/Montgomery Executive,37.20777778,-80.40777778
10509,Bear Creek Airport,57.6175,-155.8672222
10510,Bacolod Airport,10.6425,122.9297222
10511,Bryce Canyon Airport,37.70638889,-112.1447222
10511,Bryce Canyon Airport,37.70638889,-112.1458333
10512,Baucau Airport,-8.49305556,126.4005556
10512,Cakung,-8.49305556,126.4005556
10512,Cakung,-8.48555556,126.3994444
10513,Barcaldine Airport,-23.55916667,145.3019444
10513,Barcaldine Airport,-23.56527778,145.3066667
10514,Baca Grande,37.96666667,-105.7666667
10515,Barra del Colorado Airport,10.76777778,-83.58583333
10515,Barra del Colorado Airport,10.76861111,-83.58555556
10516,Bacau Airport,46.59861111,26.88194444
10516,Bacau Airport,46.52194444,26.91027778
10516,George Enescu Bacau International,46.52194444,26.91027778
10516,Bacau Airport,46.52194444,26.91027778
10516,George Enescu Bacau International,46.52194444,26.91027778
10517,Barcelona Airport,41.30277778,2.09444444
10517,Barcelona Airport,41.29694444,2.07833333
10517,Barcelona-El Prat,41.29694444,2.07833333
10517,Barcelona Airport,41.29694444,2.07833333
10517,Barcelona El Prat,41.29694444,2.07833333
10517,Barcelona Airport,41.29694444,2.07833333
10517,Barcelona Airport,41.295,2.08777778
10518,Southern Seaplane,29.86611111,-90.02222222
10519,Boca Raton Public,26.37083333,-80.10833333
10520,Bulchi Airport,6.29222222,36.88722222
10521,Bermuda NAS Kindley Field,32.36333333,-64.67805556
10521,Bermuda International,32.36416667,-64.67861111
10521,L. F. Wade International,32.36416667,-64.67861111
10522,Bundaberg Airport,-24.90583333,152.3208333
10522,Bundaberg Airport,-24.90388889,152.3186111
10523,Baudette International,48.72083333,-94.6
10523,Baudette International,48.72833333,-94.61222222
10523,Baudette International,48.73027778,-94.61111111
10524,Blanding Municipal,37.58277778,-109.4825
10524,Blanding Municipal,37.58333333,-109.4833333
10525,Bandar Lengeh Airport,26.53138889,54.82361111
10525,Bandar Lengeh Airport,26.53222222,54.82472222
10526,Bird Island Airport,-3.72416667,55.20527778
10526,Bird Island Airport,-3.72416667,55.20555556
10527,Syamsudin Noor,-3.44222222,114.7627778
10528,Bondoukou/Soko,8.01833333,-2.75833333
10528,Bondoukou/Soko,8.01777778,-2.76222222
10528,Bondoukou/Soko,8.0175,-2.76222222
10528,Bondoukou/Soko,8.01777778,-2.76222222
10528,Bondoukou/Soko,8.0175,-2.76222222
10529,Bradley International,41.93861111,-72.68333333
10529,Bradley International,41.9375,-72.68305556
10529,Bradley International,41.93888889,-72.68333333
10529,Bradley International,41.93916667,-72.68333333
10529,Bradley International,41.93888889,-72.68333333
10529,Bradley International,41.93916667,-72.68333333
10530,Bandirma Airport,40.31833333,27.97722222
10530,Bandirma Airport,40.31805556,27.9775
10530,Bandirma Airport,40.31805556,27.97777778
10530,Bandirma Airport,40.31805556,27.9775
10530,Bandirma Airport,40.31805556,27.97777778
10531,Talhar,24.84166667,68.83888889
10531,Talhar,24.84194444,68.83833333
10532,Husein Sastranegara,-6.90166667,107.5758333
10532,Husein Sastranegara,-6.90055556,107.5763889
10532,Husein Sastranegara,-6.90194444,107.575
10532,Husein Sastranegara,-6.90055556,107.5763889
10532,Husein Sastranegara,-6.90194444,107.575
10532,Husein Sastranegara,-6.90055556,107.5733333
10533,Chandragadhi,26.57166667,88.08
10533,Chandragadhi,26.57083333,88.07888889
10534,Baroda Airport,22.32916667,73.22083333
10534,Vadodara Airport,22.32916667,73.22083333
10534,Vadodara Airport,22.33611111,73.22638889
10535,Igor I Sikorsky Memorial,41.16416667,-73.12444444
10535,Igor I Sikorsky Memorial,41.16333333,-73.12611111
10536,Brindisi/Casale,40.65805556,17.94666667
10536,Casale,40.65833333,17.94694444
10536,Brindisi Airport,40.65833333,17.94694444
10537,Bardufoss Airport,69.05611111,18.54
10537,Bardufoss Airport,69.05583333,18.54027778
10537,Bardufoss Airport,69.05583333,18.53888889
10537,Bardufoss Airport,69.05583333,18.54027778
10537,Bardufoss Airport,69.05583333,18.53888889
10538,Bandon State,43.0875,-124.4083333
10538,Bandon State,43.08638889,-124.4077778
10539,Benbecula Airport,57.48222222,-7.36472222
10539,Benbecula Airport,57.48111111,-7.36277778
10539,Benbecula Airport,57.48055556,-7.36388889
10539,Benbecula Airport,57.48111111,-7.36305556
10539,Benbecula Airport,57.48111111,-7.36277778
10539,Benbecula Airport,57.48111111,-7.36305556
10540,Laurence G Hanscom Field,42.47083333,-71.29
10540,Laurence G Hanscom Field,42.47,-71.28916667
10540,Laurence G Hanscom Field,42.47,-71.28888889
10540,Laurence G Hanscom Field,42.47,-71.28916667
10540,Laurence G Hanscom Field,42.47,-71.28888889
10541,Bluefields International,11.99694444,-83.76861111
10541,Bluefields International,11.99083333,-83.77416667
10541,Bluefields Airport,11.99083333,-83.77416667
10541,Bluefields International,11.99083333,-83.77416667
10541,Bluefields Airport,11.99083333,-83.77416667
10542,Belgrade International,44.81916667,20.31222222
10542,Belgrade International,44.81916667,20.31222222
10542,Beograd,44.81833333,20.31305556
10542,Beograd,44.81833333,20.31305556
10542,Belgrade Nikola Tesla,44.81833333,20.31305556
10542,Beograd,44.81833333,20.30916667
10543,Ross Field,42.12777778,-86.42833333
10543,Southwest Michigan Regional,42.12861111,-86.42861111
10543,Southwest Michigan Regional,42.12861111,-86.42611111
10543,Southwest Michigan Regional,42.12861111,-86.42861111
10543,Southwest Michigan Regional,42.12861111,-86.42611111
10543,Southwest Michigan Regional,42.12833333,-86.425
10544,Beica Airport,9.39166667,34.53333333
10544,Beica Airport,9.39138889,34.51944444
10545,Val de Cans International,-1.37888889,-48.47555556
10545,Val de Cans International,-1.37916667,-48.47638889
10545,Val de Cans International,-1.37916667,-48.47611111
10545,Val de Cans International,-1.37916667,-48.47638889
10545,Val de Cans International,-1.37916667,-48.47611111
10547,Benina,32.09583333,20.275
10547,Benina,32.09694444,20.26944444
10547,Benina,32.09694444,20.26944444
10547,Benina International,32.09694444,20.26944444
10547,Benina,32.09694444,20.26944444
10547,Benina International,32.09694444,20.26944444
10548,Aeropelican,-33.06611111,151.6480556
10548,Aeropelican,-33.06611111,151.6463889
10548,Lake Macquarie,-33.06611111,151.6463889
10548,Aeropelican,-33.06611111,151.6480556
10548,Lake Macquarie,-33.06611111,151.6463889
10548,Lake Macquarie,-33.06583333,151.6463889
10549,Berlin Metropolitan Area,52.51166667,13.4025
10549,Berlin Metropolitan Area,52.51166667,13.40138889
10550,Brest/Guipavas,48.44722222,-4.42055556
10550,Bretagne,48.44777778,-4.41861111
10550,Brest Bretagne,48.44777778,-4.41861111
10550,Brest Bretagne,48.44944444,-4.41833333
10550,Bretagne,48.44777778,-4.41861111
10550,Brest Bretagne,48.44944444,-4.41833333
10550,Brest Bretagne,48.44944444,-4.41694444
10551,Bethel Airport,60.78444444,-161.8313889
10551,Bethel Airport,60.77861111,-161.8372222
10552,Bedourie North,-24.23,139.445
10553,Teyman,31.28333333,34.71666667
10553,Teyman,31.28638889,34.7225
10553,Teyman,31.28666667,34.72305556
10553,Teyman,31.28638889,34.7225
10553,Teyman,31.28666667,34.72305556
10554,Beira Airport,-19.79444444,34.91194444
10554,Beira Airport,-19.79638889,34.90777778
10555,Beirut International,33.81277778,35.49027778
10555,Rafic Hariri International,33.81805556,35.48388889
10555,Rafic Hariri International,33.81916667,35.49
10555,Rafic Hariri International,33.81805556,35.48388889
10555,Rafic Hariri International,33.81916667,35.49
10556,Blue Fox Bay Airport,58.18333333,-152.1333333
10557,Bradford Regional,41.80222222,-78.63944444
10557,Bradford Regional,41.80305556,-78.64
10558,William B. Heilig Field,41.87527778,-103.6011111
10558,Western Neb. Regional/William B. Heilig Field,41.87527778,-103.6011111
10558,Western Neb. Regional/William B. Heilig Field,41.87416667,-103.5955556
10559,King County Airport-Boeing Field,47.52888889,-122.2994444
10559,Boeing Field/King County International,47.53,-122.3019444
10560,Buckley Air National Guard Base,39.70166667,-104.7516667
10560,Buckley AFB,39.70166667,-104.7516667
10561,Meadows Field,35.43,-119.0522222
10561,Meadows Field,35.43361111,-119.0566667
10561,Meadows Field,35.43388889,-119.0577778
10562,Mobile Aerospace,30.62638889,-88.06805556
10562,Mobile Downtown,30.62666667,-88.06805556
10563,Bloemfontein International,-29.09222222,26.30277778
10563,Bloemfontein International,-29.09277778,26.3025
10563,Bram Fischer International,-29.09277778,26.3025
10563,Bloemfontein International,-29.09277778,26.3025
10563,Bram Fischer International,-29.09277778,26.3025
10564,Buffalo Range Airport,-21.00916667,31.57916667
10564,Buffalo Range Airport,-21.00916667,31.57916667
10564,Buffalo Range Airport,-21.00805556,31.57861111
10565,Beaver County,40.77222222,-80.39111111
10565,Beaver County,40.7725,-80.39138889
10566,Bahia de Pinas Airport,7.58333333,-78.2
10567,Virgil I Grissom Municipal,38.84,-86.44527778
10567,Virgil I Grissom Municipal,38.84,-86.44527778
10568,Belfast International (Aldergrove),54.65416667,-6.225
10568,Aldergrove,54.6575,-6.21583333
10568,Belfast Aldergrove,54.6575,-6.21583333
10568,Aldergrove,54.6575,-6.21583333
10568,Belfast Aldergrove,54.6575,-6.21583333
10569,Beaufort County,32.41194444,-80.63472222
10569,Beaufort County,32.41222222,-80.63444444
10570,Palonegro,7.12611111,-73.18472222
10570,Palonegro,7.12666667,-73.18472222
10570,Palonegro,7.12611111,-73.18472222
10570,Palonegro,7.12666667,-73.18472222
10570,Palonegro,7.12638889,-73.18472222
10571,Booue Airport,-0.10666667,11.93888889
10571,Booue Airport,-0.1075,11.94361111
10572,Hutchinson County,35.70083333,-101.3930556
10572,Hutchinson County,35.70083333,-101.3936111
10573,Decatur County Industrial Air Park,30.97166667,-84.6375
10573,Decatur County Industrial Air Park,30.97166667,-84.63694444
10574,Bangui-M'Poko,4.39611111,18.52027778
10574,Bangui-M'Poko,4.39944444,18.51944444
10575,Grantley Adams International,13.07222222,-59.49305556
10575,Grantley Adams International,13.07472222,-59.4925
10575,Grantley Adams International,13.07472222,-59.49222222
10575,Grantley Adams International,13.07472222,-59.4925
10575,Grantley Adams International,13.07472222,-59.49222222
10576,Baglung Airport,28.21361111,83.66527778
10576,Baglung Airport,28.21277778,83.66638889
10576,Baglung Airport,28.21277778,83.66527778
10576,Baglung Airport,28.21277778,83.66638889
10576,Baglung Airport,28.21361111,83.66611111
10576,Baglung Airport,28.21361111,83.66527778
10576,Baglung Airport,28.21361111,83.66611111
10577,Greater Binghamton/Edwin A. Link Field,42.20138889,-75.96916667
10577,Greater Binghamton/Edwin A. Link Field,42.20861111,-75.97972222
10577,Greater Binghamton/Edwin A. Link Field,42.20833333,-75.97972222
10577,Greater Binghamton/Edwin A. Link Field,42.20861111,-75.97972222
10577,Greater Binghamton/Edwin A. Link Field,42.20833333,-75.97972222
10578,Bruggen Airport,51.20055556,6.13333333
10578,Bruggen Airport,51.20055556,6.13333333
10578,Bruggen Airport,51.19972222,6.13222222
10579,Flesland,60.29361111,5.21944444
10579,Flesland,60.29333333,5.21805556
10580,Big Lake Airport,61.53583333,-149.8125
10580,Big Lake Airport,61.53611111,-149.8138889
10580,Big Lake Airport,61.53472222,-149.8125
10580,Big Lake Airport,61.53611111,-149.8138889
10580,Big Lake Airport,61.53472222,-149.8125
10581,Bangor International,44.80777778,-68.82777778
10581,Bangor International,44.8075,-68.82805556
10582,Big Spring McMahon-Wrinkle,32.21444444,-101.525
10582,Big Spring McMahon-Wrinkle,32.2125,-101.5216667
10583,Bagdad Airport,34.59333333,-113.1708333
10583,Bagdad Airport,34.59583333,-113.1702778
10583,Bagdad Airport,34.59277778,-113.1719444
10583,Bagdad Airport,34.59583333,-113.1702778
10583,Bagdad Airport,34.59277778,-113.1719444
10584,Bangassou Airport,4.78666667,22.78444444
10584,Bangassou Airport,4.78666667,22.78444444
10584,Bangassou Airport,4.78611111,22.7825
10584,Bangassou Airport,4.78583333,22.7825
10585,Muthanna,33.25555556,44.225
10585,Al Muthana,33.33277778,44.36388889
10586,Comandante Gustavo Kraemer,-31.39861111,-54.1125
10586,Comandante Gustavo Kraemer,-31.39055556,-54.11222222
10586,Comandante Gustavo Kraemer,-31.39055556,-54.11194444
10586,Comandante Gustavo Kraemer,-31.39055556,-54.11222222
10586,Comandante Gustavo Kraemer,-31.39055556,-54.11194444
10587,Bergamo/Orio Al Serio,45.66833333,9.70027778
10587,Bergamo Orio Al Serio,45.67388889,9.70416667
10587,Bergamo Orio Al Serio,45.66888889,9.70416667
10587,Bergamo Orio Al Serio,45.67388889,9.70416667
10587,Bergamo Orio Al Serio,45.66888889,9.70416667
10588,Isa AB,25.91833333,50.59055556
10589,Hancock County-Bar Harbor,44.44888889,-68.36166667
10589,Hancock County-Bar Harbor,44.44972222,-68.36166667
10589,Hancock County-Bar Harbor,44.44972222,-68.36138889
10590,Laughlin Bullhead International,35.16333333,-114.5644444
10590,Laughlin/Bullhead International,35.16444444,-114.5652778
10590,Laughlin/Bullhead International,35.15583333,-114.5594444
10590,Laughlin/Bullhead International,35.15472222,-114.5594444
10590,Laughlin/Bullhead International,35.15583333,-114.5594444
10590,Laughlin/Bullhead International,35.15472222,-114.5594444
10591,Belfast City,54.61722222,-5.87083333
10591,Belfast City,54.61805556,-5.8725
10592,Woodbourne,-41.51666667,173.8722222
10592,Woodbourne,-41.51777778,173.8694444
10593,Araslaya,15.73472222,-84.54333333
10593,Araslaya,15.73555556,-84.5425
10593,Araslaya,15.73555556,-84.54277778
10593,Araslaya,15.73555556,-84.5425
10593,Araslaya,15.73555556,-84.54277778
10594,Bisha Airport,19.98611111,42.625
10594,Bisha Airport,19.98416667,42.62305556
10595,Comandante Espora Nab,-38.73055556,-62.15055556
10595,Comandante Espora,-38.72555556,-62.16888889
10596,Bhuj Airport,23.2875,69.67055556
10596,Bhuj Airport,23.28777778,69.67027778
10596,Bhuj Airport,23.28805556,69.67027778
10596,Bhuj Airport,23.28777778,69.67027778
10596,Bhuj Airport,23.28805556,69.67027778
10597,Bukhara Airport,39.76666667,64.48333333
10597,Bukhara Airport,39.76666667,64.48333333
10597,Bukhara Airport,39.77527778,64.48222222
10598,Bahia de Los Angeles North,28.97555556,-113.5633333
10598,Bahia de Los Angeles North,28.97666667,-113.5602778
10598,Bahia de Los Angeles North,28.97555556,-113.5633333
10598,Bahia de Los Angeles North,28.97666667,-113.5602778
10599,Birmingham Airport,33.56305556,-86.75555556
10599,Birmingham International,33.56305556,-86.75555556
10599,Birmingham-Shuttlesworth International,33.56305556,-86.75555556
10599,Birmingham-Shuttlesworth International,33.56388889,-86.75222222
10600,Beihan Airport,14.78055556,45.71833333
10600,Beihan Airport,14.78055556,45.71833333
10600,Beihan Airport,14.78194444,45.72
10600,Beihan Airport,14.78222222,45.71972222
10600,Beihan Airport,14.78194444,45.72
10600,Beihan Airport,14.78222222,45.71972222
10601,Bhopal Airport,23.28472222,77.33861111
10601,Raja Bhoj,23.28888889,77.33
10602,Broken Hill Airport,-32.00166667,141.4666667
10602,Broken Hill Airport,-32.00138889,141.4716667
10603,Bharatpur Airport,27.67638889,84.4325
10603,Bharatpur Airport,27.67722222,84.42861111
10603,Bharatpur Airport,27.67694444,84.42833333
10603,Bharatpur Airport,27.67722222,84.42861111
10603,Bharatpur Airport,27.67694444,84.42833333
10604,Bathurst Airport,-33.41111111,149.6527778
10604,Bathurst Airport,-33.40944444,149.6519444
10605,Brighton Downs Airport,-23.35,141.55
10606,Bhavnagar Airport,21.755,72.18444444
10606,Bhavnagar Airport,21.75222222,72.18555556
10607,Bahawalpur International,29.34444444,71.7125
10607,Bahawalpur International,29.34805556,71.71805556
10607,Bahawalpur International,29.34833333,71.71805556
10607,Bahawalpur International,29.34694444,71.71138889
10607,Bahawalpur International,29.34805556,71.71805556
10607,Bahawalpur International,29.34694444,71.71138889
10608,Birmingham Airport,52.45305556,-1.74638889
10608,Birmingham Airport,52.45388889,-1.74805556
10608,Birmingham Airport,52.45416667,-1.74861111
10608,Birmingham Airport,52.45388889,-1.74805556
10608,Birmingham Airport,52.45416667,-1.74861111
10609,Beihai Airport,21.53944444,109.2938889
10610,Belo Horizonte Metropolitan Area,-19.91666667,-43.93333333
10611,Bastia/Poretta,42.54916667,9.48611111
10611,Poretta,42.55,9.48472222
10611,Poretta,42.5525,9.48361111
10611,Bastia Poretta,42.5525,9.48361111
10611,Poretta,42.55,9.48472222
10611,Bastia Poretta,42.5525,9.48361111
10612,Big Creek Airport,57.66666667,-157.5833333
10613,Block Island State,41.16666667,-71.57916667
10613,Block Island State,41.16805556,-71.57777778
10614,Beatrice Municipal,40.29888889,-96.75333333
10614,Beatrice Municipal,40.30138889,-96.75416667
10615,Biggs AAF,31.84944444,-106.3794444
10615,Biggs AAF,31.84944444,-106.38
10616,Allen AAF,63.99361111,-145.7188889
10616,Allen AAF,63.99472222,-145.7202778
10617,Eastern Sierra Regional,37.37333333,-118.365
10617,Eastern Sierra Regional,37.37305556,-118.3636111
10617,Bishop Airport,37.37305556,-118.3636111
10617,Eastern Sierra Regional,37.37305556,-118.3636111
10617,Bishop Airport,37.37305556,-118.3636111
10618,Bikini Atoll Airport,11.52166667,165.5644444
10619,Manuhua,-1.18666667,136.0855556
10620,Billings Logan International,45.80694444,-108.5427778
10620,Billings Logan International,45.80777778,-108.5427778
10620,Billings Logan International,45.80777778,-108.5436111
10621,Bimini International,25.69944444,-79.26555556
10622,Bamyan Airport,34.80416667,67.82361111
10622,Bamyan Airport,34.80944444,67.81888889
10623,Bilbao Airport,43.30277778,-2.92166667
10623,Bilbao Airport,43.30111111,-2.91055556
10624,Bulimba Airport,-16.88305556,143.4813889
10625,Anglet,43.46861111,-1.5225
10625,Anglet,43.46833333,-1.52333333
10625,Biarritz Bayonne Anglet,43.46833333,-1.52333333
10625,Biarritz Pays Basque,43.46833333,-1.52333333
10625,Anglet,43.46833333,-1.52333333
10625,Biarritz Pays Basque,43.46833333,-1.52333333
10626,Biratnagar Airport,26.43472222,87.28333333
10626,Biratnagar Airport,26.48138889,87.26416667
10626,Biratnagar Airport,26.48222222,87.26361111
10626,Biratnagar Airport,26.48138889,87.26416667
10626,Biratnagar Airport,26.48222222,87.26361111
10627,Bismarck Municipal,46.77888889,-100.7525
10627,Bismarck Municipal,46.77277778,-100.7458333
10628,Bria Airport,6.52805556,21.98861111
10628,Bria Airport,6.52833333,21.98888889
10629,Keesler AFB,30.41111111,-88.92361111
10629,Keesler AFB,30.41055556,-88.92444444
10630,Rocky Mountain Metropolitan,39.90888889,-105.1172222
10630,Rocky Mountain Metro,39.90888889,-105.1172222
10630,Rocky Mountain Metropolitan,39.90888889,-105.1172222
10630,Rocky Mountain Metro,39.90888889,-105.1172222
10631,Bemidji Municipal,47.50972222,-94.93472222
10631,Bemidji/Beltrami County,47.50944444,-94.93361111
10631,Bemidji Regional,47.50944444,-94.93361111
10631,Bemidji Regional,47.51083333,-94.93472222
10632,Wayne County,40.87472222,-81.88694444
10632,Wayne County,40.87472222,-81.88666667
10632,Wayne County,40.87472222,-81.88833333
10633,Banjul International,13.33722222,-16.65444444
10633,Banjul International,13.33777778,-16.65222222
10634,Bujumbura International,-3.33166667,29.32083333
10634,Bujumbura International,-3.32388889,29.31861111
10635,Bahir Dar Airport,11.59027778,37.38472222
10635,Bahir Dar Airport,11.60833333,37.32166667
10635,Bahir Dar Ginbot Haya International,11.60833333,37.32166667
10635,Bahir Dar Airport,11.60833333,37.32166667
10635,Bahir Dar Ginbot Haya International,11.60833333,37.32166667
10635,Bahir Dar Ginbot Haya International,11.60611111,37.31944444
10636,Bajura Airport,29.50194444,81.66861111
10636,Bajura Airport,29.50361111,81.66833333
10636,Bajura Airport,29.50277778,81.66861111
10636,Bajura Airport,29.50305556,81.66833333
10636,Bajura Airport,29.50194444,81.66861111
10636,Bajura Airport,29.50305556,81.66833333
10637,Imsik,37.14055556,27.66861111
10637,Imsik,37.14,27.66944444
10638,Guanajuato International,20.99138889,-101.48
10638,Guanajuato International,20.99333333,-101.4808333
10639,Badajoz Airport,38.89138889,-6.82138889
10639,Talavera La Real,38.89111111,-6.82138889
10639,Talavera La Real,38.89138889,-6.82138889
10639,Badajoz Airport,38.89138889,-6.82138889
10639,Talavera La Real,38.89111111,-6.82138889
10639,Badajoz Airport,38.89138889,-6.82138889
10640,Buckland Airport,65.97888889,-161.1266667
10640,Buckland Airport,65.98166667,-161.1491667
10641,Baker City Municipal,44.83833333,-117.81
10641,Baker City Municipal,44.83722222,-117.8091667
10642,Brooks Lake Airport,58.6,-156.2333333
10643,Branson Airport,36.53194444,-93.20055556
10644,Barking Sands Pacific Missile Range Facility,22.02166667,-159.7866667
10644,Barking Sands PMRF,22.02277778,-159.785
10645,Kota Kinabalu International,5.94083333,116.05
10645,Kota Kinabalu International,5.93722222,116.0511111
10645,Kota Kinabalu International,5.93388889,116.0497222
10645,Kota Kinabalu International,5.93722222,116.0511111
10645,Kota Kinabalu International,5.93388889,116.0497222
10646,Bangkok International,13.91111111,100.6083333
10646,Don Mueang International,13.9125,100.6066667
10647,Lakefront,41.51694444,-81.68333333
10647,Burke Lakefront,41.5175,-81.68333333
10647,Burke Lakefront,41.51777778,-81.68277778
10647,Burke Lakefront,41.5175,-81.68333333
10647,Burke Lakefront,41.51777778,-81.68277778
10648,Bakelalan Airport,3.985,115.62
10648,Bakelalan Airport,3.97444444,115.6166667
10648,Bakelalan Airport,3.97361111,115.6172222
10648,Bakelalan Airport,3.97444444,115.6166667
10648,Bakelalan Airport,3.97361111,115.6172222
10650,Senou,12.53361111,-7.95
10650,Senou,12.53611111,-7.94611111
10650,Senou,12.53472222,-7.94805556
10650,Senou,12.53777778,-7.94333333
10650,Modibo Keita,12.53777778,-7.94333333
10650,Senou,12.53361111,-7.95
10650,Modibo Keita,12.53777778,-7.94333333
10651,Blackall Airport,-24.43416667,145.4283333
10651,Blackall Airport,-24.42777778,145.4286111
10652,Padangkemiling,-3.86472222,102.3383333
10652,Fatmawati Soekarno,-3.86388889,102.3391667
10652,Fatmawati Soekarno,-3.86111111,102.3394444
10652,Fatmawati Soekarno,-3.86388889,102.3391667
10652,Fatmawati Soekarno,-3.86111111,102.3394444
10653,Betioky Airport,-23.73222222,44.39111111
10653,Betioky Airport,-23.73222222,44.39111111
10653,Betioky Airport,-23.73305556,44.39027778
10653,Betioky Airport,-23.73361111,44.39083333
10653,Betioky Airport,-23.73305556,44.39027778
10653,Betioky Airport,-23.73361111,44.39083333
10654,Raleigh County Memorial,37.78194444,-81.12416667
10654,Raleigh County Memorial,37.78722222,-81.12416667
10655,Brookings Regional,44.30333333,-96.81111111
10655,Brookings Regional,44.30472222,-96.81694444
10655,Brookings Regional,44.30444444,-96.81888889
10655,Brookings Regional,44.30472222,-96.81694444
10655,Brookings Regional,44.30444444,-96.81888889
10656,Bukavu Kavumu,-2.30888889,28.80888889
10657,Bukoba Airport,-1.3,31.8
10657,Bukoba Airport,-1.33083333,31.82
10657,Bukoba Airport,-1.33138889,31.82055556
10657,Bukoba Airport,-1.33083333,31.82
10657,Bukoba Airport,-1.33138889,31.82055556
10658,Campo Nuevo,10.10972222,-64.6875
10658,General Jose Antonio Anzoategui International,10.11,-64.69055556
10658,General Jose Antonio Anzoategui International,10.10722222,-64.68916667
10658,General Jose Antonio Anzoategui International,10.11,-64.69055556
10658,General Jose Antonio Anzoategui International,10.10722222,-64.68916667
10659,Albrook AFB,8.97083333,-79.55638889
10660,Bali Airport,5.89166667,10.025
10661,Boulder City Municipal,35.9475,-114.8611111
10661,Boulder City Municipal,35.94722222,-114.8602778
10661,Boulder City Municipal,35.9475,-114.8613889
10661,Boulder City Municipal,35.9475,-114.8611111
10661,Boulder City Municipal,35.9475,-114.8613889
10661,Boulder City Municipal,35.94722222,-114.8611111
10662,Borlange Airport,60.42333333,15.51805556
10662,Borlange Airport,60.42194444,15.51527778
10662,Borlange Airport,60.42222222,15.51527778
10663,Mercer County,37.29583333,-81.20805556
10663,Mercer County,37.29583333,-81.20777778
10663,Mercer County,37.29583333,-81.2075
10664,Belaga Airport,2.64444444,113.7625
10664,Belaga Airport,2.63611111,113.7605556
10665,Blythe Airport,33.62083333,-114.7188889
10665,Blythe Airport,33.61916667,-114.7169444
10666,Bellingham International,48.79444444,-122.5347222
10666,Bellingham International,48.79277778,-122.5375
10667,Mostepha Ben Boulaid,35.75194444,6.30944444
10668,Blackpool Airport,53.77194444,-3.03611111
10668,Blackpool Airport,53.77138889,-3.02833333
10668,Blackpool Airport,53.77166667,-3.02861111
10668,Blackpool Airport,53.77138889,-3.02833333
10668,Blackpool Airport,53.77166667,-3.02861111
10668,Blackpool Airport,53.77194444,-3.03833333
10669,Billund Airport,55.74027778,9.15277778
10669,Billund Airport,55.74027778,9.15166667
10669,Billund Airport,55.74055556,9.15694444
10670,Monmouth Executive,40.18666667,-74.125
10670,Monmouth Executive,40.18666667,-74.12444444
10671,Blonduos/Hjaltabakki,65.64555556,-20.28666667
10671,Blonduos Airport,65.645,-20.2875
10672,Bellavista 1,-7.06416667,-76.58638889
10672,Bellavista 1,-7.06027778,-76.58222222
10672,Bellavista 1,-7.06416667,-76.58638889
10672,Bellavista 1,-7.06027778,-76.58222222
10673,Bologna/Borgo Panigale,44.53055556,11.2925
10673,Bologna Airport,44.53555556,11.28861111
10674,Bangalore Airport,12.94972222,77.66805556
10674,Bengaluru International,13.19888889,77.70555556
10674,Bangalore International,13.20694444,77.70444444
10674,Kempegowda International,13.20694444,77.70444444
10674,Bangalore International,13.20694444,77.70444444
10674,Kempegowda International,13.20694444,77.70444444
10674,Kempegowda International,13.19833333,77.70638889
10675,Blackwater Airport,-23.6,148.8166667
10675,Blackwater Airport,-23.60305556,148.8069444
10676,Scott AFB,38.54277778,-89.85111111
10676,Scott AFB/MidAmerica,38.54527778,-89.83527778
10677,Chileka International,-15.67472222,34.97083333
10677,Chileka International,-15.67888889,34.97388889
10678,Bromma,59.35277778,17.94638889
10678,Bromma,59.35444444,17.94166667
10678,Bromma,59.35444444,17.94138889
10678,Bromma,59.35444444,17.94166667
10679,Bumba Airport,2.19,22.47333333
10679,Bumba Airport,2.18333333,22.47972222
10679,Bumba Airport,2.18333333,22.47944444
10680,Brigham City Airport,41.54916667,-112.0622222
10680,Brigham City Airport,41.5525,-112.0622222
10680,Brigham City Airport,41.55444444,-112.0622222
10680,Brigham City Airport,41.5525,-112.0622222
10680,Brigham City Airport,41.55444444,-112.0622222
10680,Brigham City Regional,41.55444444,-112.0622222
10681,Belo Airport,-19.68666667,44.54222222
10681,Belo Sur Tsiribihina,-19.68666667,44.54222222
10681,Belo Sur Tsiribihina,-19.68666667,44.5425
10682,Broome International,-17.95,122.23
10682,Broome International,-17.94472222,122.2316667
10682,Broome International,-17.94944444,122.2277778
10682,Broome International,-17.94472222,122.2316667
10682,Broome International,-17.94944444,122.2277778
10683,Monroe County,39.14,-86.61472222
10683,Monroe County,39.14,-86.61472222
10683,Monroe County,39.14611111,-86.61666667
10684,Bomai Airport,-6.37611111,144.6352778
10684,Bomai Airport,-6.37472222,144.6355556
10684,Bomai Airport,-6.37611111,144.6352778
10684,Bomai Airport,-6.37472222,144.6355556
10685,Central Illinois Regional,40.48194444,-88.9275
10685,Central Illinois Regional,40.47722222,-88.91583333
10685,Central Il Regional Airport at Bloomington,40.47722222,-88.91583333
10686,Baramita Airport,7.37,-60.49
10686,Baramita Airport,7.37083333,-60.48972222
10686,Baramita Airport,7.37,-60.49
10686,Baramita Airport,7.37083333,-60.48972222
10687,Berlin Municipal,44.57472222,-71.17638889
10687,Berlin Regional,44.57527778,-71.17583333
10688,Bitam Airport,2.07583333,11.49083333
10688,Bitam Airport,2.07722222,11.49222222
10689,Bhamo Airport,24.27388889,97.25166667
10689,Banmaw,24.27388889,97.25166667
10689,Banmaw,24.27083333,97.24722222
10690,Brampton Island Airport,-20.78333333,149.2333333
10690,Brampton Island Airport,-20.80333333,149.27
10691,Bordj Mokhtar,21.37527778,0.92722222
10691,Bordj Mokhtar,21.3775,0.92583333
10691,Bordj Mokhtar,21.37777778,0.92611111
10691,Bordj Mokhtar,21.3775,0.92583333
10691,Bordj Mokhtar,21.37777778,0.92611111
10691,Bordj Mokhtar,21.37833333,0.93027778
10692,Big Mountain AFS,59.36194444,-155.2566667
10692,Big Mountain AFS,59.36111111,-155.2588889
10693,Nashville International,36.12666667,-86.68194444
10693,Nashville International,36.12444444,-86.67805556
10694,Boende Airport,-0.23305556,20.87
10694,Boende Airport,-0.28666667,20.88333333
10695,Bandar Abbas International,27.22666667,56.37833333
10695,Bandar Abbas International,27.21833333,56.37777778
10696,Brisbane International,-27.425,153.0855556
10696,Brisbane International,-27.38416667,153.1175
10697,Warm Spring Bay Seaplane Base,57.08916667,-134.8313889
10698,Banning Municipal,33.92305556,-116.8505556
10698,Banning Municipal,33.9225,-116.8505556
10698,Banning Municipal,33.9225,-116.8508333
10698,Banning Municipal,33.9225,-116.8505556
10698,Banning Municipal,33.9225,-116.8508333
10699,Benin City Airport,6.32388889,5.60166667
10700,Ballina Byron Gateway,-28.83611111,153.5613889
10700,Ballina Byron Gateway,-28.83388889,153.5625
10701,Barnwell County,33.25777778,-81.38833333
10701,Barnwell Regional,33.25805556,-81.38805556
10701,Barnwell Regional,33.25777778,-81.38833333
10701,Barnwell Regional,33.25805556,-81.38805556
10701,Barnwell Regional,33.25777778,-81.38833333
10702,Bronnoy,65.46027778,12.20694444
10702,Bronnoy,65.46111111,12.2175
10703,Burns Municipal,43.59055556,-118.9541667
10703,Burns Municipal,43.59194444,-118.9555556
10704,Barinas Airport,8.61805556,-70.22111111
10704,Barinas Airport,8.61972222,-70.22111111
10705,Banja Luka Airport,44.94138889,17.2975
10706,Banz Airport,-5.80833333,144.6113889
10707,Boma Airport,-5.85027778,13.06555556
10707,Boma Airport,-5.85388889,13.06388889
10708,Bora Bora Motu Mute,-16.4425,-151.7491667
10708,Bora Bora Motu Mute,-16.44444444,-151.7513889
10709,Bocas del Toro International,9.34,-82.25194444
10709,Bocas del Toro International,9.34083333,-82.25083333
10709,Jose Ezequiel Hall,9.34083333,-82.25083333
10710,Bordeaux/Merignac,44.82944444,-0.71444444
10710,Merignac,44.82833333,-0.71555556
10710,Merignac,44.82861111,-0.71527778
10710,Bordeaux Merignac,44.82861111,-0.71527778
10710,Merignac,44.82833333,-0.71555556
10710,Bordeaux Merignac,44.82861111,-0.71527778
10711,El Dorado International,4.70611111,-74.14222222
10711,El Dorado International,4.70166667,-74.14694444
10712,Bournemouth Airport,50.78055556,-1.83694444
10712,Bournemouth Airport,50.78,-1.8425
10713,Boise Air Terminal,43.56527778,-116.225
10713,Boise Air Terminal,43.56444444,-116.2227778
10714,Burgas Airport,42.57,27.51527778
10714,Burgas Airport,42.57,27.51527778
10715,Brookings Airport,42.07472222,-124.2888889
10715,Brookings Airport,42.07444444,-124.29
10715,Brookings Airport,42.07388889,-124.2897222
10716,Sahar International,19.08805556,72.85166667
10716,Chhatrapati Shivaji International,19.08805556,72.85166667
10716,Chhatrapati Shivaji International,19.08861111,72.86777778
10716,Chhatrapati Shivaji Maharaj International,19.08861111,72.86777778
10717,Flamingo International,12.13083333,-68.26833333
10717,Flamingo,12.13083333,-68.26833333
10717,Flamingo,12.13083333,-68.2675
10717,Flamingo International,12.13083333,-68.2675
10717,Flamingo,12.13083333,-68.26833333
10717,Flamingo International,12.13083333,-68.2675
10718,Bodo Airport,67.26916667,14.37222222
10718,Bodo Airport,67.26916667,14.36527778
10718,Bodo Airport,67.26861111,14.35888889
10719,Boku Airport,-6.54305556,155.3430556
10720,Fontaine,47.65555556,7.01166667
10720,Fontaine,47.65638889,7.01166667
10721,Logan International,42.36361111,-71.00611111
10721,Logan International,42.36305556,-71.00638889
10722,Bartow Municipal,27.94333333,-81.78361111
10722,Bartow Municipal,27.94333333,-81.78333333
10722,Bartow Executive,27.94333333,-81.78333333
10723,Borroloola Airport,-16.07722222,136.3036111
10723,Borroloola Airport,-16.07638889,136.3036111
10723,Borroloola Airport,-16.07527778,136.3022222
10724,Bobo Dioulasso Airport,11.16361111,-4.32638889
10724,Bobo Dioulasso Airport,11.16361111,-4.32638889
10724,Bobo Dioulasso Airport,11.15972222,-4.33111111
10725,Bislig Airport,8.19666667,126.3211111
10725,Bislig Airport,8.19527778,126.3213889
10726,Sepinggan,-1.26833333,116.8944444
10726,Sultan Aji Muhammad Sulaiman Sepinggan,-1.26833333,116.8944444
10726,Sepinggan,-1.26833333,116.8944444
10726,Sultan Aji Muhammad Sulaiman Sepinggan,-1.26833333,116.8944444
10727,Porto Seguro Airport,-16.44055556,-39.08333333
10727,Porto Seguro Airport,-16.43861111,-39.08083333
10728,Jefferson County,29.95083333,-94.02
10728,Southeast Texas Regional,29.95083333,-94.02
10728,Jack Brooks Regional,29.95083333,-94.02
10728,Jack Brooks Regional,29.95083333,-94.02055556
10729,Baler Airport,15.73222222,121.5005556
10729,Baler Airport,15.72972222,121.5002778
10730,Biggin Hill,51.33083333,0.0325
10731,Glynco Jetport,31.25888889,-81.46638889
10731,Brunswick Golden Isles,31.25888889,-81.46638889
10731,Brunswick Golden Isles,31.25916667,-81.46638889
10732,Ramey AFB,18.49583333,-67.13
10732,Rafael Hernandez,18.495,-67.12944444
10732,Rafael Hernandez,18.49472222,-67.12944444
10733,Ignatyevo,50.41666667,127.4
10733,Ignatyevo,50.41666667,127.4
10733,Ignatyevo,50.42555556,127.4125
10733,Blagoveshchensk,50.42555556,127.4125
10733,Ignatyevo,50.42555556,127.4125
10734,J. F. Mitchell,12.98833333,-61.26194444
10734,J. F. Mitchell,12.98861111,-61.26222222
10734,J. F. Mitchell,12.98833333,-61.26194444
10734,J. F. Mitchell,12.98861111,-61.26222222
10735,Bartlett Cove Seaplane Base,58.45555556,-135.8833333
10735,Bartlett Cove Seaplane Base,58.45527778,-135.8852778
10736,Pato Branco,-26.21777778,-52.69416667
10736,Pato Branco,-26.21722222,-52.69444444
10736,Juvenal Loureiro Cardoso,-26.21722222,-52.69444444
10737,Barreiras Airport,-12.07305556,-45.00833333
10737,Barreiras Airport,-12.07888889,-45.00888889
10737,Barreiras Airport,-12.07916667,-45.00944444
10737,Barreiras Airport,-12.07888889,-45.00888889
10737,Barreiras Airport,-12.07916667,-45.00944444
10738,San Carlos de Bariloche Airport,-41.14972222,-71.15833333
10738,San Carlos de Bariloche Airport,-41.15111111,-71.1575
10738,San Carlos de Bariloche Airport,-41.15111111,-71.15777778
10738,San Carlos de Bariloche Airport,-41.15111111,-71.1575
10738,San Carlos de Bariloche Airport,-41.15111111,-71.15777778
10739,Brainerd/Crow Wing County,46.39722222,-94.1375
10739,Brainerd Lakes Regional,46.39722222,-94.1375
10739,Brainerd Lakes Regional,46.40166667,-94.13555556
10739,Brainerd Lakes Regional,46.40222222,-94.13555556
10739,Brainerd Lakes Regional,46.40416667,-94.13361111
10739,Brainerd Lakes Regional,46.40166667,-94.13555556
10739,Brainerd Lakes Regional,46.40416667,-94.13361111
10740,Bremen Airport,53.04666667,8.79
10740,Bremen Airport,53.04666667,8.79
10740,Bremen Airport,53.0475,8.78666667
10740,Bremen Airport,53.04694444,8.78972222
10741,Whitesburg Municipal,37.11666667,-82.81666667
10742,Bari Airport,41.14111111,16.78833333
10742,Bari Airport,41.1375,16.75722222
10742,Bari Airport,41.13861111,16.76055556
10742,Bari Airport,41.1375,16.75722222
10743,Bourke Airport,-30.04305556,145.9472222
10743,Bourke Airport,-30.04305556,145.9472222
10743,Bourke Airport,-30.03916667,145.9516667
10744,Burlington Municipal,40.78611111,-91.12333333
10744,Southeast Iowa Regional,40.78333333,-91.12555556
10745,Barquisimeto International,10.04527778,-69.35611111
10745,Barquisimeto International,10.0425,-69.35833333
10745,Barquisimeto International,10.04222222,-69.36055556
10745,Barquisimeto International,10.0425,-69.35861111
10745,Barquisimeto International,10.0425,-69.35833333
10745,Barquisimeto International,10.0425,-69.35861111
10746,Bern/Belp,46.91527778,7.49916667
10746,Bern/Belp,46.91333333,7.49805556
10747,Brownsville South Padre Island International,25.90638889,-97.42555556
10747,Brownsville South Padre Island International,25.90694444,-97.42583333
10747,Brownsville South Padre Island International,25.90611111,-97.42611111
10747,Brownsville South Padre Island International,25.90694444,-97.42583333
